{
"type": "FeatureCollection",
"crs": { "type": "name", "properties": { "name": "urn:ogc:def:crs:OGC:1.3:CRS84" } },
                                                                                
"features": [
{ "type": "Feature", "properties": { "id": 1, "name": "Пункт проката велосипедов № 5", "capacity": 12, "slots": 12, "lon": 37.600000, "lat": 55.755400, "district": "Пресненский район", "address": "Никитский бульвар, дом 11\/12, строение 3", "address_note": null }, "geometry": { "type": "Point", "coordinates": [ 37.6, 55.7554 ] } },
{ "type": "Feature", "properties": { "id": 2, "name": "Пункт проката велосипедов № 6", "capacity": 8, "slots": 8, "lon": 37.598500, "lat": 55.757300, "district": "Пресненский район", "address": "Большая Никитская улица, дом 23\/14\/9", "address_note": null }, "geometry": { "type": "Point", "coordinates": [ 37.5985, 55.7573 ] } },
{ "type": "Feature", "properties": { "id": 3, "name": "Пункт проката велосипедов № 9", "capacity": 16, "slots": 16, "lon": 37.605100, "lat": 55.764600, "district": "Тверской район", "address": "Тверской бульвар, дом 28", "address_note": null }, "geometry": { "type": "Point", "coordinates": [ 37.6051, 55.7646 ] } },
{ "type": "Feature", "properties": { "id": 4, "name": "Пункт проката велосипедов № 324", "capacity": 10, "slots": 10, "lon": 37.509105, "lat": 55.663880, "district": "район Проспект Вернадского", "address": "улица Лобачевского, дом 2 ,строение 1", "address_note": null }, "geometry": { "type": "Point", "coordinates": [ 37.5091053, 55.6638804 ] } },
{ "type": "Feature", "properties": { "id": 5, "name": "Пункт проката велосипедов № 8", "capacity": 14, "slots": 14, "lon": 37.602200, "lat": 55.761600, "district": "Пресненский район", "address": "Тверской бульвар, дом 17, строение 1", "address_note": null }, "geometry": { "type": "Point", "coordinates": [ 37.6022, 55.7616 ] } },
{ "type": "Feature", "properties": { "id": 6, "name": "Пункт проката велосипедов № 2", "capacity": 14, "slots": 14, "lon": 37.599600, "lat": 55.746900, "district": "район Хамовники", "address": "Гоголевский бульвар, дом 17, строение 1", "address_note": null }, "geometry": { "type": "Point", "coordinates": [ 37.5996, 55.7469 ] } },
{ "type": "Feature", "properties": { "id": 7, "name": "Пункт проката велосипедов № 11", "capacity": 8, "slots": 8, "lon": 37.613100, "lat": 55.768100, "district": "Тверской район", "address": "Страстной бульвар, дом 16", "address_note": null }, "geometry": { "type": "Point", "coordinates": [ 37.6131, 55.7681 ] } },
{ "type": "Feature", "properties": { "id": 8, "name": "Пункт проката велосипедов № 1", "capacity": 24, "slots": 24, "lon": 37.600700, "lat": 55.745400, "district": "район Хамовники", "address": "Гоголевский бульвар, дом 1, строение 4", "address_note": "Выход станции метро «Кропоткинская»" }, "geometry": { "type": "Point", "coordinates": [ 37.6007, 55.7454 ] } },
{ "type": "Feature", "properties": { "id": 9, "name": "Пункт проката велосипедов № 10", "capacity": 10, "slots": 10, "lon": 37.609500, "lat": 55.766700, "district": "Тверской район", "address": "Страстной бульвар, дом 8А", "address_note": null }, "geometry": { "type": "Point", "coordinates": [ 37.6095, 55.7667 ] } },
{ "type": "Feature", "properties": { "id": 10, "name": "Пункт проката велосипедов № 3", "capacity": 12, "slots": 12, "lon": 37.600600, "lat": 55.750900, "district": "район Арбат", "address": "Гоголевский бульвар, дом 33", "address_note": null }, "geometry": { "type": "Point", "coordinates": [ 37.6006, 55.7509 ] } },
{ "type": "Feature", "properties": { "id": 11, "name": "Пункт проката велосипедов № 20", "capacity": 8, "slots": 8, "lon": 37.648400, "lat": 55.755400, "district": "Басманный район", "address": "Покровский бульвар, дом 12, строение 1", "address_note": null }, "geometry": { "type": "Point", "coordinates": [ 37.6484, 55.7554 ] } },
{ "type": "Feature", "properties": { "id": 12, "name": "Пункт проката велосипедов № 21", "capacity": 8, "slots": 8, "lon": 37.647400, "lat": 55.753300, "district": "Басманный район", "address": "Покровский бульвар, дом 18\/15", "address_note": "На пересечении с Подколокольным переулком" }, "geometry": { "type": "Point", "coordinates": [ 37.6474, 55.7533 ] } },
{ "type": "Feature", "properties": { "id": 13, "name": "Пункт проката велосипедов № 28", "capacity": 12, "slots": 12, "lon": 37.617200, "lat": 55.763400, "district": "Тверской район", "address": "улица Моховая, дом 11", "address_note": null }, "geometry": { "type": "Point", "coordinates": [ 37.6172, 55.7634 ] } },
{ "type": "Feature", "properties": { "id": 14, "name": "Пункт проката велосипедов № 19", "capacity": 8, "slots": 8, "lon": 37.647300, "lat": 55.757300, "district": "Басманный район", "address": "Покровский бульвар, дом 8, строение 1А", "address_note": null }, "geometry": { "type": "Point", "coordinates": [ 37.6473, 55.7573 ] } },
{ "type": "Feature", "properties": { "id": 15, "name": "Пункт проката велосипедов № 16", "capacity": 10, "slots": 10, "lon": 37.639100, "lat": 55.764700, "district": "Басманный район", "address": "Чистопрудный бульвар, дом 1А", "address_note": "Выход станции метро «Чистые Пруды»" }, "geometry": { "type": "Point", "coordinates": [ 37.6391, 55.7647 ] } },
{ "type": "Feature", "properties": { "id": 16, "name": "Пункт проката велосипедов № 29", "capacity": 12, "slots": 12, "lon": 37.609600, "lat": 55.762100, "district": "Тверской район", "address": "Тверская улица, дом 8", "address_note": null }, "geometry": { "type": "Point", "coordinates": [ 37.6096, 55.7621 ] } },
{ "type": "Feature", "properties": { "id": 17, "name": "Пункт проката велосипедов № 30", "capacity": 14, "slots": 14, "lon": 37.612000, "lat": 55.759400, "district": "Тверской район", "address": "Камергерский переулок, дом 9", "address_note": null }, "geometry": { "type": "Point", "coordinates": [ 37.612, 55.7594 ] } },
{ "type": "Feature", "properties": { "id": 18, "name": "Пункт проката велосипедов № 35", "capacity": 18, "slots": 18, "lon": 37.623000, "lat": 55.762200, "district": "Мещанский район", "address": "улица Кузнецкий Мост, дом 13\/9, строение 1", "address_note": null }, "geometry": { "type": "Point", "coordinates": [ 37.623, 55.7622 ] } },
{ "type": "Feature", "properties": { "id": 19, "name": "Пункт проката велосипедов № 18", "capacity": 8, "slots": 8, "lon": 37.645500, "lat": 55.760300, "district": "Басманный район", "address": "Чистопрудный бульвар, дом 12, строение 1", "address_note": null }, "geometry": { "type": "Point", "coordinates": [ 37.6455, 55.7603 ] } },
{ "type": "Feature", "properties": { "id": 20, "name": "Пункт проката велосипедов № 17", "capacity": 8, "slots": 8, "lon": 37.641700, "lat": 55.763100, "district": "Басманный район", "address": "Чистопрудный бульвар, дом 8, строение 1", "address_note": null }, "geometry": { "type": "Point", "coordinates": [ 37.6417, 55.7631 ] } },
{ "type": "Feature", "properties": { "id": 21, "name": "Пункт проката велосипедов № 15", "capacity": 8, "slots": 8, "lon": 37.636700, "lat": 55.765400, "district": "Красносельский район", "address": "Тургеневская площадь, дом 2", "address_note": "Между выходами станции метро «Тургеневская»" }, "geometry": { "type": "Point", "coordinates": [ 37.6367, 55.7654 ] } },
{ "type": "Feature", "properties": { "id": 22, "name": "Пункт проката велосипедов № 41", "capacity": 8, "slots": 8, "lon": 37.635100, "lat": 55.753900, "district": "Басманный район", "address": "Лубянский проезд, дом 27\/1, строение 1", "address_note": "Выход станции метро «Китай-Город»" }, "geometry": { "type": "Point", "coordinates": [ 37.6351, 55.7539 ] } },
{ "type": "Feature", "properties": { "id": 23, "name": "Пункт проката велосипедов № 203", "capacity": 9, "slots": 9, "lon": 37.579100, "lat": 55.724200, "district": "район Хамовники", "address": "Комсомольский проспект, дом 31, строение 2", "address_note": "На пересечении со 2-й Фрунзенской улицей" }, "geometry": { "type": "Point", "coordinates": [ 37.5791, 55.7242 ] } },
{ "type": "Feature", "properties": { "id": 24, "name": "Пункт проката велосипедов № 204", "capacity": 8, "slots": 8, "lon": 37.586400, "lat": 55.721700, "district": "район Хамовники", "address": "Фрунзенская набережная, дом 36\/2", "address_note": "На пересечении со 2-й Фрунзенской улицей" }, "geometry": { "type": "Point", "coordinates": [ 37.5864, 55.7217 ] } },
{ "type": "Feature", "properties": { "id": 25, "name": "Пункт проката велосипедов № 49", "capacity": 10, "slots": 10, "lon": 37.641500, "lat": 55.767100, "district": "Басманный район", "address": "улица Мясницкая, дом 39", "address_note": null }, "geometry": { "type": "Point", "coordinates": [ 37.6415, 55.7671 ] } },
{ "type": "Feature", "properties": { "id": 26, "name": "Пункт проката велосипедов № 200", "capacity": 12, "slots": 12, "lon": 37.596900, "lat": 55.733600, "district": "район Хамовники", "address": "Фрунзенская набережная, дом 4", "address_note": null }, "geometry": { "type": "Point", "coordinates": [ 37.5969, 55.7336 ] } },
{ "type": "Feature", "properties": { "id": 27, "name": "Пункт проката велосипедов № 13", "capacity": 10, "slots": 10, "lon": 37.631600, "lat": 55.766600, "district": "Мещанский район", "address": "площадь Сретенские Ворота, дом 1", "address_note": null }, "geometry": { "type": "Point", "coordinates": [ 37.6316, 55.7666 ] } },
{ "type": "Feature", "properties": { "id": 28, "name": "Пункт проката велосипедов № 308", "capacity": 12, "slots": 12, "lon": 37.579688, "lat": 55.701583, "district": "Академический район", "address": "Улица Вавилова, дом 17", "address_note": null }, "geometry": { "type": "Point", "coordinates": [ 37.579688, 55.701583 ] } },
{ "type": "Feature", "properties": { "id": 29, "name": "Пункт проката велосипедов № 201", "capacity": 22, "slots": 22, "lon": 37.589900, "lat": 55.725700, "district": "район Хамовники", "address": "Фрунзенская набережная, дом 22\/2", "address_note": "На пересечении с 1-й Фрунзенской улицей" }, "geometry": { "type": "Point", "coordinates": [ 37.5899, 55.7257 ] } },
{ "type": "Feature", "properties": { "id": 30, "name": "Пункт проката велосипедов № 202", "capacity": 12, "slots": 12, "lon": 37.584200, "lat": 55.727400, "district": "район Хамовники", "address": "Комсомольский проспект, дом 21, строение 1", "address_note": "На пересечении с 1-й Фрунзенской улицей" }, "geometry": { "type": "Point", "coordinates": [ 37.5842, 55.7274 ] } },
{ "type": "Feature", "properties": { "id": 31, "name": "Пункт проката велосипедов № 207", "capacity": 10, "slots": 10, "lon": 37.578000, "lat": 55.715500, "district": "район Хамовники", "address": "Фрунзенская набережная, дом 54", "address_note": "На пересечении с улицей Хамовнический Вал" }, "geometry": { "type": "Point", "coordinates": [ 37.578, 55.7155 ] } },
{ "type": "Feature", "properties": { "id": 32, "name": "Пункт проката велосипедов № 152", "capacity": 8, "slots": 8, "lon": 37.610800, "lat": 55.730400, "district": "район Якиманка", "address": "улица Крымский Вал, дом 6", "address_note": "Выход станции метро «Октябрьская»" }, "geometry": { "type": "Point", "coordinates": [ 37.6108, 55.7304 ] } },
{ "type": "Feature", "properties": { "id": 33, "name": "Пункт проката велосипедов № 210", "capacity": 34, "slots": 34, "lon": 37.569500, "lat": 55.712600, "district": "район Хамовники", "address": "Лужнецкая набережная, дом 2\/4, строение 68", "address_note": "На пересечении с Новолужнецким проездом" }, "geometry": { "type": "Point", "coordinates": [ 37.5695, 55.7126 ] } },
{ "type": "Feature", "properties": { "id": 34, "name": "Пункт проката велосипедов № 205", "capacity": 12, "slots": 12, "lon": 37.575900, "lat": 55.722000, "district": "район Хамовники", "address": "Комсомольский проспект, дом 37", "address_note": "На пересечении с 3-й Фрунзенской улицей" }, "geometry": { "type": "Point", "coordinates": [ 37.5759, 55.722 ] } },
{ "type": "Feature", "properties": { "id": 35, "name": "Пункт проката велосипедов № 39", "capacity": 22, "slots": 22, "lon": 37.642500, "lat": 55.759000, "district": "Басманный район", "address": "улица Покровка, дом 7\/9-11", "address_note": null }, "geometry": { "type": "Point", "coordinates": [ 37.6425, 55.759 ] } },
{ "type": "Feature", "properties": { "id": 36, "name": "Пункт проката велосипедов № 206", "capacity": 10, "slots": 10, "lon": 37.583500, "lat": 55.719200, "district": "район Хамовники", "address": "Фрунзенская набережная, дом 44, строение 1", "address_note": "На пересечении с 3-й Фрунзенской улицей" }, "geometry": { "type": "Point", "coordinates": [ 37.5835, 55.7192 ] } },
{ "type": "Feature", "properties": { "id": 37, "name": "Пункт проката велосипедов № 211", "capacity": 48, "slots": 48, "lon": 37.560000, "lat": 55.711600, "district": "район Хамовники", "address": "Лужнецкая набережная, дом 24, строение 20", "address_note": "Выход станции метро «Воробьёвы Горы»" }, "geometry": { "type": "Point", "coordinates": [ 37.56, 55.7116 ] } },
{ "type": "Feature", "properties": { "id": 38, "name": "Пункт проката велосипедов № 100", "capacity": 40, "slots": 40, "lon": 37.593300, "lat": 55.735200, "district": "район Хамовники", "address": "Зубовский бульвар, дом 5, строение 3", "address_note": "Выход станции метро «Парк Культуры»" }, "geometry": { "type": "Point", "coordinates": [ 37.5933, 55.7352 ] } },
{ "type": "Feature", "properties": { "id": 39, "name": "Пункт проката велосипедов № 209", "capacity": 12, "slots": 12, "lon": 37.561700, "lat": 55.721800, "district": "район Хамовники", "address": "улица Хамовнический Вал, дом 36А", "address_note": "Выход станции метро «Спортивная»" }, "geometry": { "type": "Point", "coordinates": [ 37.5617, 55.7218 ] } },
{ "type": "Feature", "properties": { "id": 40, "name": "Пункт проката велосипедов № 212", "capacity": 34, "slots": 34, "lon": 37.547400, "lat": 55.727000, "district": "район Хамовники", "address": "Лужнецкая набережная, дом 24, строение 33", "address_note": null }, "geometry": { "type": "Point", "coordinates": [ 37.5474, 55.727 ] } },
{ "type": "Feature", "properties": { "id": 41, "name": "Пункт проката велосипедов № 359", "capacity": 18, "slots": 18, "lon": 37.534100, "lat": 55.694600, "district": "район Раменки", "address": "Ломоносовский проспект, дом 66", "address_note": null }, "geometry": { "type": "Point", "coordinates": [ 37.5341, 55.6946 ] } },
{ "type": "Feature", "properties": { "id": 42, "name": "Пункт проката велосипедов № 132", "capacity": 12, "slots": 12, "lon": 37.652142, "lat": 55.767033, "district": "Басманный район", "address": "Садовая-Черногрязская улица, дом 10\/25", "address_note": null }, "geometry": { "type": "Point", "coordinates": [ 37.652142, 55.767033 ] } },
{ "type": "Feature", "properties": { "id": 43, "name": "Пункт проката велосипедов № 56", "capacity": 12, "slots": 12, "lon": 37.610800, "lat": 55.745200, "district": "район Якиманка", "address": "Берсеневская набережная, дом 2, строение 1", "address_note": null }, "geometry": { "type": "Point", "coordinates": [ 37.6108, 55.7452 ] } },
{ "type": "Feature", "properties": { "id": 44, "name": "Пункт проката велосипедов № 301", "capacity": 12, "slots": 12, "lon": 37.545600, "lat": 55.700800, "district": "район Раменки", "address": "Университетский проспект, дом 13", "address_note": "остановка Университетский проспект" }, "geometry": { "type": "Point", "coordinates": [ 37.5456, 55.7008 ] } },
{ "type": "Feature", "properties": { "id": 45, "name": "Пункт проката велосипедов № 14", "capacity": 12, "slots": 12, "lon": 37.636400, "lat": 55.766900, "district": "Красносельский район", "address": "Сретенский бульвар, дом 11", "address_note": null }, "geometry": { "type": "Point", "coordinates": [ 37.6364, 55.7669 ] } },
{ "type": "Feature", "properties": { "id": 46, "name": "Пункт проката велосипедов № 53", "capacity": 12, "slots": 12, "lon": 37.541800, "lat": 55.708300, "district": "район Арбат", "address": "улица Новый Арбат, дом 21", "address_note": null }, "geometry": { "type": "Point", "coordinates": [ 37.5418, 55.7083 ] } },
{ "type": "Feature", "properties": { "id": 47, "name": "Пункт проката велосипедов № 75", "capacity": 12, "slots": 12, "lon": 37.625600, "lat": 55.740800, "district": "район Замоскворечье", "address": "Климентовский переулок, дом 23, строение 1", "address_note": "Выход станции метро «Третьяковская»" }, "geometry": { "type": "Point", "coordinates": [ 37.6256, 55.7408 ] } },
{ "type": "Feature", "properties": { "id": 48, "name": "Пункт проката велосипедов № 45", "capacity": 12, "slots": 12, "lon": 37.599600, "lat": 55.768000, "district": "Тверской район", "address": "Тверская улица, дом 24, строение 1", "address_note": null }, "geometry": { "type": "Point", "coordinates": [ 37.5996, 55.768 ] } },
{ "type": "Feature", "properties": { "id": 49, "name": "Пункт проката велосипедов № 57", "capacity": 12, "slots": 12, "lon": 37.615400, "lat": 55.744000, "district": "район Якиманка", "address": "улица Серафимовича, дом 2", "address_note": "Напротив кинотеатра «Ударник»" }, "geometry": { "type": "Point", "coordinates": [ 37.6154, 55.744 ] } },
{ "type": "Feature", "properties": { "id": 50, "name": "Пункт проката велосипедов № 70", "capacity": 12, "slots": 12, "lon": 37.620200, "lat": 55.742900, "district": "район Якиманка", "address": "Лаврушинский переулок, дом 4, строение 1", "address_note": null }, "geometry": { "type": "Point", "coordinates": [ 37.6202, 55.7429 ] } },
{ "type": "Feature", "properties": { "id": 51, "name": "Пункт проката велосипедов № 218", "capacity": 24, "slots": 24, "lon": 37.580700, "lat": 55.726400, "district": "район Хамовники", "address": "Комсомольский проспект, дом 28", "address_note": "Выход станции метро «Фрунзенская»" }, "geometry": { "type": "Point", "coordinates": [ 37.5807, 55.7264 ] } },
{ "type": "Feature", "properties": { "id": 52, "name": "Пункт проката велосипедов № 213", "capacity": 12, "slots": 12, "lon": 37.559600, "lat": 55.726900, "district": "район Хамовники", "address": "Новодевичий проезд, дом 1", "address_note": "рядом с остановкой улица 10-летия Октября" }, "geometry": { "type": "Point", "coordinates": [ 37.5596, 55.7269 ] } },
{ "type": "Feature", "properties": { "id": 53, "name": "Пункт проката велосипедов № 208", "capacity": 12, "slots": 12, "lon": 37.565200, "lat": 55.723800, "district": "район Хамовники", "address": "Усачёва улица, дом 29, корпус 3", "address_note": "Выход станции метро «Спортивная»" }, "geometry": { "type": "Point", "coordinates": [ 37.5652, 55.7238 ] } },
{ "type": "Feature", "properties": { "id": 54, "name": "Пункт проката велосипедов № 219", "capacity": 12, "slots": 12, "lon": 37.570400, "lat": 55.719300, "district": "район Хамовники", "address": "улица Хамовнический Вал, дом 24", "address_note": "рядом с остановкой улица Хамовнический Вал" }, "geometry": { "type": "Point", "coordinates": [ 37.5704, 55.7193 ] } },
{ "type": "Feature", "properties": { "id": 55, "name": "Пункт проката велосипедов № 214", "capacity": 12, "slots": 12, "lon": 37.569200, "lat": 55.731100, "district": "район Хамовники", "address": "Большая Пироговская улица, дом 2, строение 4", "address_note": "рядом с МГМУ им. Семашко" }, "geometry": { "type": "Point", "coordinates": [ 37.5692, 55.7311 ] } },
{ "type": "Feature", "properties": { "id": 56, "name": "Пункт проката велосипедов № 215", "capacity": 21, "slots": 21, "lon": 37.575400, "lat": 55.733800, "district": "район Хамовники", "address": "Большая Пироговская улица, дом 15\/18, строение 1", "address_note": null }, "geometry": { "type": "Point", "coordinates": [ 37.5754, 55.7338 ] } },
{ "type": "Feature", "properties": { "id": 57, "name": "Пункт проката велосипедов № 216", "capacity": 12, "slots": 12, "lon": 37.581300, "lat": 55.736400, "district": "район Хамовники", "address": "Большая Пироговская улица, дом 5", "address_note": null }, "geometry": { "type": "Point", "coordinates": [ 37.5813, 55.7364 ] } },
{ "type": "Feature", "properties": { "id": 58, "name": "Пункт проката велосипедов № 26", "capacity": 12, "slots": 12, "lon": 37.605500, "lat": 55.746400, "district": "район Хамовники", "address": "улица Волхонка, дом 14, строение 6", "address_note": null }, "geometry": { "type": "Point", "coordinates": [ 37.6055, 55.7464 ] } },
{ "type": "Feature", "properties": { "id": 59, "name": "Пункт проката велосипедов № 134", "capacity": 12, "slots": 12, "lon": 37.655200, "lat": 55.765000, "district": "Басманный район", "address": "Садовая-Черногрязская улица, дом 16\/18, строение 1", "address_note": null }, "geometry": { "type": "Point", "coordinates": [ 37.6552, 55.765 ] } },
{ "type": "Feature", "properties": { "id": 60, "name": "Пункт проката велосипедов № 217", "capacity": 12, "slots": 12, "lon": 37.577000, "lat": 55.730700, "district": "район Хамовники", "address": "Усачёва улица, дом 2, строение 1", "address_note": null }, "geometry": { "type": "Point", "coordinates": [ 37.577, 55.7307 ] } },
{ "type": "Feature", "properties": { "id": 61, "name": "Пункт проката велосипедов № 142", "capacity": 12, "slots": 12, "lon": 37.655500, "lat": 55.752200, "district": "Таганский район", "address": "улица Земляной Вал, дом 48Б", "address_note": null }, "geometry": { "type": "Point", "coordinates": [ 37.6555, 55.7522 ] } },
{ "type": "Feature", "properties": { "id": 62, "name": "Пункт проката велосипедов № 138", "capacity": 12, "slots": 12, "lon": 37.656900, "lat": 55.760700, "district": "Басманный район", "address": "улица Земляной Вал, дом 14\/16, строение 1", "address_note": null }, "geometry": { "type": "Point", "coordinates": [ 37.6569, 55.7607 ] } },
{ "type": "Feature", "properties": { "id": 63, "name": "Пункт проката велосипедов № 140", "capacity": 12, "slots": 12, "lon": 37.657300, "lat": 55.759300, "district": "Басманный район", "address": "улица Земляной Вал, дом 24\/30, строение 1", "address_note": null }, "geometry": { "type": "Point", "coordinates": [ 37.6573, 55.7593 ] } },
{ "type": "Feature", "properties": { "id": 64, "name": "Пункт проката велосипедов № 110", "capacity": 12, "slots": 12, "lon": 37.584600, "lat": 55.757200, "district": "район Арбат", "address": "Новинский бульвар, дом 28\/35, строение 1А", "address_note": null }, "geometry": { "type": "Point", "coordinates": [ 37.5846, 55.7572 ] } },
{ "type": "Feature", "properties": { "id": 65, "name": "Пункт проката велосипедов № 43", "capacity": 12, "slots": 12, "lon": 37.593100, "lat": 55.763500, "district": "Пресненский район", "address": "Большой Патриарший переулок, дом 7, строение 1", "address_note": "Большой Патриарший переулок на пересечении с Малым Патриаршим переулком" }, "geometry": { "type": "Point", "coordinates": [ 37.5931, 55.7635 ] } },
{ "type": "Feature", "properties": { "id": 66, "name": "Пункт проката велосипедов № 116", "capacity": 12, "slots": 12, "lon": 37.594100, "lat": 55.767800, "district": "Пресненский район", "address": "Большая Садовая улица, дом 14, строение 1", "address_note": "рядом со входом в Сад Аквариум" }, "geometry": { "type": "Point", "coordinates": [ 37.5941, 55.7678 ] } },
{ "type": "Feature", "properties": { "id": 67, "name": "Пункт проката велосипедов № 120", "capacity": 12, "slots": 12, "lon": 37.614100, "lat": 55.773100, "district": "Тверской район", "address": "Садовая-Самотёчная улица, дом 8", "address_note": null }, "geometry": { "type": "Point", "coordinates": [ 37.6141, 55.7731 ] } },
{ "type": "Feature", "properties": { "id": 68, "name": "Пункт проката велосипедов № 136", "capacity": 12, "slots": 12, "lon": 37.656200, "lat": 55.763300, "district": "Басманный район", "address": "улица Земляной Вал, дом 2", "address_note": null }, "geometry": { "type": "Point", "coordinates": [ 37.6562, 55.7633 ] } },
{ "type": "Feature", "properties": { "id": 69, "name": "Пункт проката велосипедов № 118", "capacity": 12, "slots": 12, "lon": 37.599100, "lat": 55.770600, "district": "Тверской район", "address": "Садовая-Триумфальная улица, дом 4\/10", "address_note": null }, "geometry": { "type": "Point", "coordinates": [ 37.5991, 55.7706 ] } },
{ "type": "Feature", "properties": { "id": 70, "name": "Пункт проката велосипедов № 225", "capacity": 12, "slots": 12, "lon": 37.551700, "lat": 55.751600, "district": "Пресненский район", "address": "Краснопресненская набережная, дом 3", "address_note": null }, "geometry": { "type": "Point", "coordinates": [ 37.5517, 55.7516 ] } },
{ "type": "Feature", "properties": { "id": 71, "name": "Пункт проката велосипедов № 50", "capacity": 12, "slots": 12, "lon": 37.599800, "lat": 55.752600, "district": "район Арбат", "address": "улица Новый Арбат, дом 1, строение 2", "address_note": null }, "geometry": { "type": "Point", "coordinates": [ 37.5998, 55.7526 ] } },
{ "type": "Feature", "properties": { "id": 72, "name": "Пункт проката велосипедов № 44", "capacity": 12, "slots": 12, "lon": 37.596400, "lat": 55.766400, "district": "Пресненский район", "address": "Благовещенский переулок, дом 1", "address_note": null }, "geometry": { "type": "Point", "coordinates": [ 37.5964, 55.7664 ] } },
{ "type": "Feature", "properties": { "id": 73, "name": "Пункт проката велосипедов № 128", "capacity": 12, "slots": 12, "lon": 37.643100, "lat": 55.770200, "district": "Красносельский район", "address": "Садовая-Спасская улица, дом 26", "address_note": null }, "geometry": { "type": "Point", "coordinates": [ 37.6431, 55.7702 ] } },
{ "type": "Feature", "properties": { "id": 74, "name": "Пункт проката велосипедов № 4", "capacity": 12, "slots": 12, "lon": 37.599800, "lat": 55.752600, "district": "Пресненский район", "address": "Никитский бульвар, дом 8А\/3, строение 1", "address_note": null }, "geometry": { "type": "Point", "coordinates": [ 37.5998, 55.7526 ] } },
{ "type": "Feature", "properties": { "id": 75, "name": "Пункт проката велосипедов № 54", "capacity": 12, "slots": 12, "lon": 37.591900, "lat": 55.747500, "district": "район Арбат", "address": "переулок Сивцев Вражек, дом 26, строение 1", "address_note": null }, "geometry": { "type": "Point", "coordinates": [ 37.5919, 55.7475 ] } },
{ "type": "Feature", "properties": { "id": 76, "name": "Пункт проката велосипедов № 126", "capacity": 10, "slots": 10, "lon": 37.632800, "lat": 55.772100, "district": "Красносельский район", "address": "улица Сретенка, дом 36", "address_note": "Выход станции метро «Сухаревская»" }, "geometry": { "type": "Point", "coordinates": [ 37.6328, 55.7721 ] } },
{ "type": "Feature", "properties": { "id": 77, "name": "Пункт проката велосипедов № 104", "capacity": 12, "slots": 12, "lon": 37.585100, "lat": 55.742100, "district": "район Хамовники", "address": "Смоленский бульвар, дом 22\/14", "address_note": null }, "geometry": { "type": "Point", "coordinates": [ 37.5851, 55.7421 ] } },
{ "type": "Feature", "properties": { "id": 78, "name": "Пункт проката велосипедов № 52", "capacity": 12, "slots": 12, "lon": 37.589300, "lat": 55.752200, "district": "район Арбат", "address": "улица Новый Арбат, дом 19", "address_note": null }, "geometry": { "type": "Point", "coordinates": [ 37.5893, 55.7522 ] } },
{ "type": "Feature", "properties": { "id": 79, "name": "Пункт проката велосипедов № 51", "capacity": 12, "slots": 12, "lon": 37.596400, "lat": 55.752500, "district": "район Арбат", "address": "улица Новый Арбат, дом 11", "address_note": null }, "geometry": { "type": "Point", "coordinates": [ 37.5964, 55.7525 ] } },
{ "type": "Feature", "properties": { "id": 80, "name": "Пункт проката велосипедов № 106", "capacity": 24, "slots": 24, "lon": 37.583000, "lat": 55.749100, "district": "район Арбат", "address": "Смоленская площадь, дом 6", "address_note": null }, "geometry": { "type": "Point", "coordinates": [ 37.583, 55.7491 ] } },
{ "type": "Feature", "properties": { "id": 81, "name": "Пункт проката велосипедов № 150", "capacity": 12, "slots": 12, "lon": 37.629600, "lat": 55.729600, "district": "район Замоскворечье", "address": "Валовая улица, дом 20", "address_note": null }, "geometry": { "type": "Point", "coordinates": [ 37.6296, 55.7296 ] } },
{ "type": "Feature", "properties": { "id": 82, "name": "Пункт проката велосипедов № 154", "capacity": 20, "slots": 20, "lon": 37.610600, "lat": 55.729900, "district": "район Якиманка", "address": "улица Крымский Вал, дом 3, строение 16", "address_note": null }, "geometry": { "type": "Point", "coordinates": [ 37.6106, 55.7299 ] } },
{ "type": "Feature", "properties": { "id": 83, "name": "Пункт проката велосипедов № 148", "capacity": 12, "slots": 12, "lon": 37.638800, "lat": 55.731800, "district": "район Замоскворечье", "address": "улица Бахрушина, дом 31\/12, строение 3", "address_note": null }, "geometry": { "type": "Point", "coordinates": [ 37.6388, 55.7318 ] } },
{ "type": "Feature", "properties": { "id": 84, "name": "Пункт проката велосипедов № 144", "capacity": 12, "slots": 12, "lon": 37.655400, "lat": 55.749300, "district": "Таганский район", "address": "улица Земляной Вал, дом 52\/16, строение 2", "address_note": null }, "geometry": { "type": "Point", "coordinates": [ 37.6554, 55.7493 ] } },
{ "type": "Feature", "properties": { "id": 85, "name": "Пункт проката велосипедов № 74", "capacity": 12, "slots": 12, "lon": 37.620300, "lat": 55.732100, "district": "район Якиманка", "address": "улица Большая Полянка, дом 50\/1, строение 1", "address_note": null }, "geometry": { "type": "Point", "coordinates": [ 37.6203, 55.7321 ] } },
{ "type": "Feature", "properties": { "id": 86, "name": "Пункт проката велосипедов № 24", "capacity": 12, "slots": 12, "lon": 37.609300, "lat": 55.745900, "district": "район Хамовники", "address": "Пречистенская набережная, дом 45\/1, строение 2А", "address_note": null }, "geometry": { "type": "Point", "coordinates": [ 37.6093, 55.7459 ] } },
{ "type": "Feature", "properties": { "id": 87, "name": "Пункт проката велосипедов № 220", "capacity": 12, "slots": 12, "lon": 37.575200, "lat": 55.761100, "district": "Пресненский район", "address": "улица Красная Пресня, дом 1", "address_note": null }, "geometry": { "type": "Point", "coordinates": [ 37.5752, 55.7611 ] } },
{ "type": "Feature", "properties": { "id": 88, "name": "Пункт проката велосипедов № 59", "capacity": 12, "slots": 12, "lon": 37.646100, "lat": 55.740800, "district": "Таганский район", "address": "Котельническая набережная, дом 33, строение 1", "address_note": null }, "geometry": { "type": "Point", "coordinates": [ 37.6461, 55.7408 ] } },
{ "type": "Feature", "properties": { "id": 89, "name": "Пункт проката велосипедов № 240", "capacity": 20, "slots": 20, "lon": 37.575700, "lat": 55.746000, "district": "район Арбат", "address": "Смоленская набережная, дом 2", "address_note": null }, "geometry": { "type": "Point", "coordinates": [ 37.5757, 55.746 ] } },
{ "type": "Feature", "properties": { "id": 90, "name": "Пункт проката велосипедов № 242", "capacity": 12, "slots": 12, "lon": 37.570500, "lat": 55.739300, "district": "район Хамовники", "address": "Саввинская набережная, дом 3", "address_note": null }, "geometry": { "type": "Point", "coordinates": [ 37.5705, 55.7393 ] } },
{ "type": "Feature", "properties": { "id": 91, "name": "Пункт проката велосипедов № 400", "capacity": 12, "slots": 12, "lon": 37.596300, "lat": 55.772500, "district": "Тверской район", "address": "3-я Тверская-Ямская улица, дом 20, строение 1", "address_note": null }, "geometry": { "type": "Point", "coordinates": [ 37.5963, 55.7725 ] } },
{ "type": "Feature", "properties": { "id": 92, "name": "Пункт проката велосипедов № 232", "capacity": 12, "slots": 12, "lon": 37.585900, "lat": 55.773100, "district": "Пресненский район", "address": "2-я Брестская улица, дом 31", "address_note": null }, "geometry": { "type": "Point", "coordinates": [ 37.5859, 55.7731 ] } },
{ "type": "Feature", "properties": { "id": 93, "name": "Пункт проката велосипедов № 403", "capacity": 12, "slots": 12, "lon": 37.599700, "lat": 55.774200, "district": "Тверской район", "address": "улица Фадеева, дом 4", "address_note": null }, "geometry": { "type": "Point", "coordinates": [ 37.5997, 55.7742 ] } },
{ "type": "Feature", "properties": { "id": 94, "name": "Пункт проката велосипедов № 233", "capacity": 12, "slots": 12, "lon": 37.587900, "lat": 55.767700, "district": "Пресненский район", "address": "улица Гашека, дом 2, строение 1", "address_note": null }, "geometry": { "type": "Point", "coordinates": [ 37.5879, 55.7677 ] } },
{ "type": "Feature", "properties": { "id": 95, "name": "Пункт проката велосипедов № 243", "capacity": 12, "slots": 12, "lon": 37.568200, "lat": 55.736800, "district": "район Хамовники", "address": "Саввинская набережная, дом 9", "address_note": null }, "geometry": { "type": "Point", "coordinates": [ 37.5682, 55.7368 ] } },
{ "type": "Feature", "properties": { "id": 96, "name": "Пункт проката велосипедов № 222", "capacity": 12, "slots": 12, "lon": 37.559000, "lat": 55.756800, "district": "Пресненский район", "address": "Мантулинская улица, дом 2", "address_note": null }, "geometry": { "type": "Point", "coordinates": [ 37.559, 55.7568 ] } },
{ "type": "Feature", "properties": { "id": 97, "name": "Пункт проката велосипедов № 235", "capacity": 12, "slots": 12, "lon": 37.576600, "lat": 55.760900, "district": "Пресненский район", "address": "Большая Грузинская улица, дом 1, строение 2", "address_note": null }, "geometry": { "type": "Point", "coordinates": [ 37.5766, 55.7609 ] } },
{ "type": "Feature", "properties": { "id": 98, "name": "Пункт проката велосипедов № 401", "capacity": 12, "slots": 12, "lon": 37.590000, "lat": 55.775100, "district": "Тверской район", "address": "2-я Тверская-Ямская улица, дом 54", "address_note": null }, "geometry": { "type": "Point", "coordinates": [ 37.59, 55.7751 ] } },
{ "type": "Feature", "properties": { "id": 99, "name": "Пункт проката велосипедов № 221", "capacity": 12, "slots": 12, "lon": 37.563500, "lat": 55.762400, "district": "Пресненский район", "address": "улица Красная Пресня, дом 31", "address_note": null }, "geometry": { "type": "Point", "coordinates": [ 37.5635, 55.7624 ] } },
{ "type": "Feature", "properties": { "id": 100, "name": "Пункт проката велосипедов № 223", "capacity": 12, "slots": 12, "lon": 37.551300, "lat": 55.756000, "district": "Пресненский район", "address": "Мантулинская улица, дом 5, строение 21", "address_note": null }, "geometry": { "type": "Point", "coordinates": [ 37.5513, 55.756 ] } },
{ "type": "Feature", "properties": { "id": 101, "name": "Пункт проката велосипедов № 224", "capacity": 12, "slots": 12, "lon": 37.559400, "lat": 55.754100, "district": "Пресненский район", "address": "Краснопресненская набережная, дом 12А", "address_note": null }, "geometry": { "type": "Point", "coordinates": [ 37.5594, 55.7541 ] } },
{ "type": "Feature", "properties": { "id": 102, "name": "Пункт проката велосипедов № 344", "capacity": 12, "slots": 12, "lon": 37.564800, "lat": 55.706700, "district": "Гагаринский район", "address": "улица Косыгина, дом 8, строение 2", "address_note": null }, "geometry": { "type": "Point", "coordinates": [ 37.5648, 55.7067 ] } },
{ "type": "Feature", "properties": { "id": 103, "name": "Пункт проката велосипедов № 239", "capacity": 12, "slots": 12, "lon": 37.574600, "lat": 55.751700, "district": "район Арбат", "address": "Смоленская набережная, дом 12", "address_note": null }, "geometry": { "type": "Point", "coordinates": [ 37.5746, 55.7517 ] } },
{ "type": "Feature", "properties": { "id": 104, "name": "Пункт проката велосипедов № 238", "capacity": 12, "slots": 12, "lon": 37.561200, "lat": 55.763700, "district": "Пресненский район", "address": "улица 1905 Года, дом 4, строение 2", "address_note": null }, "geometry": { "type": "Point", "coordinates": [ 37.5612, 55.7637 ] } },
{ "type": "Feature", "properties": { "id": 105, "name": "Пункт проката велосипедов № 360", "capacity": 18, "slots": 18, "lon": 37.535200, "lat": 55.693100, "district": "Гагаринский район", "address": "площадь Джавахарлала Неру, дом 1", "address_note": null }, "geometry": { "type": "Point", "coordinates": [ 37.5352, 55.6931 ] } },
{ "type": "Feature", "properties": { "id": 106, "name": "Пункт проката велосипедов № 345", "capacity": 12, "slots": 12, "lon": 37.577300, "lat": 55.708300, "district": "Гагаринский район", "address": "улица Косыгина, дом 2, строение 19", "address_note": null }, "geometry": { "type": "Point", "coordinates": [ 37.5773, 55.7083 ] } },
{ "type": "Feature", "properties": { "id": 107, "name": "Пункт проката велосипедов № 227", "capacity": 12, "slots": 12, "lon": 37.551700, "lat": 55.751600, "district": "Пресненский район", "address": "Краснопресненская набережная, дом 16, строение 1", "address_note": null }, "geometry": { "type": "Point", "coordinates": [ 37.5517, 55.7516 ] } },
{ "type": "Feature", "properties": { "id": 108, "name": "Пункт проката велосипедов № 350", "capacity": 15, "slots": 15, "lon": 37.562400, "lat": 55.691500, "district": "Академический район", "address": "улица Вавилова, дом 55\/7", "address_note": null }, "geometry": { "type": "Point", "coordinates": [ 37.5624, 55.6915 ] } },
{ "type": "Feature", "properties": { "id": 109, "name": "Пункт проката велосипедов № 102", "capacity": 12, "slots": 12, "lon": 37.585500, "lat": 55.738100, "district": "район Хамовники", "address": "Зубовская площадь, дом 3, строение 1", "address_note": null }, "geometry": { "type": "Point", "coordinates": [ 37.5855, 55.7381 ] } },
{ "type": "Feature", "properties": { "id": 110, "name": "Пункт проката велосипедов № 226", "capacity": 12, "slots": 12, "lon": 37.546100, "lat": 55.748800, "district": "Пресненский район", "address": "Краснопресненская набережная, дом 14, строение 8", "address_note": null }, "geometry": { "type": "Point", "coordinates": [ 37.5461, 55.7488 ] } },
{ "type": "Feature", "properties": { "id": 111, "name": "Пункт проката велосипедов № 311", "capacity": 12, "slots": 12, "lon": 37.560800, "lat": 55.697600, "district": "Гагаринский район", "address": "Ленинский проспект, дом 54", "address_note": null }, "geometry": { "type": "Point", "coordinates": [ 37.5608, 55.6976 ] } },
{ "type": "Feature", "properties": { "id": 112, "name": "Пункт проката велосипедов № 310", "capacity": 12, "slots": 12, "lon": 37.550800, "lat": 55.690300, "district": "Гагаринский район", "address": "Ленинский проспект, дом 34\/1", "address_note": null }, "geometry": { "type": "Point", "coordinates": [ 37.5508, 55.6903 ] } },
{ "type": "Feature", "properties": { "id": 113, "name": "Пункт проката велосипедов № 31", "capacity": 12, "slots": 12, "lon": 37.616500, "lat": 55.759100, "district": "Тверской район", "address": "улица Большая Дмитровка, дом 2", "address_note": null }, "geometry": { "type": "Point", "coordinates": [ 37.6165, 55.7591 ] } },
{ "type": "Feature", "properties": { "id": 114, "name": "Пункт проката велосипедов № 362", "capacity": 15, "slots": 15, "lon": 37.562000, "lat": 55.678600, "district": "Академический район", "address": "Нахимовский проспект, дом 46", "address_note": null }, "geometry": { "type": "Point", "coordinates": [ 37.562, 55.6786 ] } },
{ "type": "Feature", "properties": { "id": 115, "name": "Пункт проката велосипедов № 320", "capacity": 15, "slots": 15, "lon": 37.546600, "lat": 55.688200, "district": "Гагаринский район", "address": "Ленинский проспект, дом 73\/8", "address_note": null }, "geometry": { "type": "Point", "coordinates": [ 37.5466, 55.6882 ] } },
{ "type": "Feature", "properties": { "id": 116, "name": "Пункт проката велосипедов № 343", "capacity": 12, "slots": 12, "lon": 37.555200, "lat": 55.706400, "district": "район Раменки", "address": "улица Косыгина, дом 18, строение 2", "address_note": null }, "geometry": { "type": "Point", "coordinates": [ 37.5552, 55.7064 ] } },
{ "type": "Feature", "properties": { "id": 117, "name": "Пункт проката велосипедов № 319", "capacity": 15, "slots": 15, "lon": 37.550800, "lat": 55.690300, "district": "Гагаринский район", "address": "Ленинский проспект, дом 69", "address_note": null }, "geometry": { "type": "Point", "coordinates": [ 37.5508, 55.6903 ] } },
{ "type": "Feature", "properties": { "id": 118, "name": "Пункт проката велосипедов № 32", "capacity": 12, "slots": 12, "lon": 37.615800, "lat": 55.759800, "district": "Тверской район", "address": "улица Большая Дмитровка, дом 5\/6, строение 5", "address_note": null }, "geometry": { "type": "Point", "coordinates": [ 37.6158, 55.7598 ] } },
{ "type": "Feature", "properties": { "id": 119, "name": "Пункт проката велосипедов № 313", "capacity": 12, "slots": 12, "lon": 37.550100, "lat": 55.691300, "district": "Гагаринский район", "address": "Ленинский проспект, дом 66", "address_note": null }, "geometry": { "type": "Point", "coordinates": [ 37.5501, 55.6913 ] } },
{ "type": "Feature", "properties": { "id": 120, "name": "Пункт проката велосипедов № 358", "capacity": 12, "slots": 12, "lon": 37.528400, "lat": 55.698400, "district": "район Раменки", "address": "Ломоносовский проспект, дом 27", "address_note": "Ломоносовский проспект (дублер), пересечение с улицей Лебедева" }, "geometry": { "type": "Point", "coordinates": [ 37.5284, 55.6984 ] } },
{ "type": "Feature", "properties": { "id": 121, "name": "Пункт проката велосипедов № 357", "capacity": 12, "slots": 12, "lon": 37.523700, "lat": 55.699300, "district": "район Раменки", "address": "Ломоносовский проспект, дом 27", "address_note": null }, "geometry": { "type": "Point", "coordinates": [ 37.5237, 55.6993 ] } },
{ "type": "Feature", "properties": { "id": 122, "name": "Пункт проката велосипедов № 356", "capacity": 12, "slots": 12, "lon": 37.522600, "lat": 55.701700, "district": "район Раменки", "address": "Ломоносовский проспект, дом 27, корпус 4", "address_note": "Ломоносовский проспект (дублер), пересечение с улицей Менделеевская" }, "geometry": { "type": "Point", "coordinates": [ 37.5226, 55.7017 ] } },
{ "type": "Feature", "properties": { "id": 123, "name": "Пункт проката велосипедов № 349", "capacity": 12, "slots": 12, "lon": 37.535500, "lat": 55.706200, "district": "район Раменки", "address": "территория Ленинские Горы, дом 1", "address_note": "Университетский проспект, напротив главного здания МГУ" }, "geometry": { "type": "Point", "coordinates": [ 37.5355, 55.7062 ] } },
{ "type": "Feature", "properties": { "id": 124, "name": "Пункт проката велосипедов № 402", "capacity": 12, "slots": 12, "lon": 37.586700, "lat": 55.777500, "district": "Тверской район", "address": "Лесная улица, дом 5", "address_note": null }, "geometry": { "type": "Point", "coordinates": [ 37.5867, 55.7775 ] } },
{ "type": "Feature", "properties": { "id": 125, "name": "Пункт проката велосипедов № 241", "capacity": 12, "slots": 12, "lon": 37.572700, "lat": 55.740300, "district": "район Хамовники", "address": "7-й Ростовский переулок, дом 11", "address_note": "Выход с моста для пешеходов" }, "geometry": { "type": "Point", "coordinates": [ 37.5727, 55.7403 ] } },
{ "type": "Feature", "properties": { "id": 126, "name": "Пункт проката велосипедов № 23", "capacity": 12, "slots": 12, "lon": 37.632700, "lat": 55.749600, "district": "Таганский район", "address": "Москворецкая набережная, дом 9, строение 2", "address_note": null }, "geometry": { "type": "Point", "coordinates": [ 37.6327, 55.7496 ] } },
{ "type": "Feature", "properties": { "id": 127, "name": "Пункт проката велосипедов № 22", "capacity": 12, "slots": 12, "lon": 37.638800, "lat": 55.748100, "district": "Таганский район", "address": "Москворецкая набережная, дом 2А, строение 1", "address_note": null }, "geometry": { "type": "Point", "coordinates": [ 37.6388, 55.7481 ] } },
{ "type": "Feature", "properties": { "id": 128, "name": "Пункт проката велосипедов № 234", "capacity": 12, "slots": 12, "lon": 37.582200, "lat": 55.770200, "district": "Пресненский район", "address": "Большая Грузинская улица, дом 39", "address_note": null }, "geometry": { "type": "Point", "coordinates": [ 37.5822, 55.7702 ] } },
{ "type": "Feature", "properties": { "id": 129, "name": "Пункт проката велосипедов № 25", "capacity": 12, "slots": 12, "lon": 37.608400, "lat": 55.744500, "district": "район Хамовники", "address": "улица Волхонка, дом 15, строение 3", "address_note": "Пречистенская набережная, у Патриаршего моста" }, "geometry": { "type": "Point", "coordinates": [ 37.6084, 55.7445 ] } },
{ "type": "Feature", "properties": { "id": 130, "name": "Пункт проката велосипедов № 72", "capacity": 20, "slots": 20, "lon": 37.612500, "lat": 55.730700, "district": "район Якиманка", "address": "улица Большая Якиманка, дом 18", "address_note": "улица Большая Якиманка, станция метро Октябрьская" }, "geometry": { "type": "Point", "coordinates": [ 37.6125, 55.7307 ] } },
{ "type": "Feature", "properties": { "id": 131, "name": "Пункт проката велосипедов № 351", "capacity": 12, "slots": 12, "lon": 37.572000, "lat": 55.688300, "district": "Академический район", "address": "улица Дмитрия Ульянова, дом 20, корпус 1", "address_note": null }, "geometry": { "type": "Point", "coordinates": [ 37.572, 55.6883 ] } },
{ "type": "Feature", "properties": { "id": 132, "name": "Пункт проката велосипедов № 378", "capacity": 12, "slots": 12, "lon": 37.594400, "lat": 55.636700, "district": "район Чертаново Северное", "address": "Сумской проезд, дом 4, корпус 401", "address_note": null }, "geometry": { "type": "Point", "coordinates": [ 37.5944, 55.6367 ] } },
{ "type": "Feature", "properties": { "id": 133, "name": "Пункт проката велосипедов № 377", "capacity": 12, "slots": 12, "lon": 37.604700, "lat": 55.639800, "district": "район Чертаново Северное", "address": "Чертановская улица, дом 7, строение 2", "address_note": "Выход станции метро «Чертановская»" }, "geometry": { "type": "Point", "coordinates": [ 37.6047, 55.6398 ] } },
{ "type": "Feature", "properties": { "id": 134, "name": "Пункт проката велосипедов № 383", "capacity": 12, "slots": 12, "lon": 37.542500, "lat": 55.637600, "district": "район Коньково", "address": "улица Миклухо-Маклая, дом 44", "address_note": null }, "geometry": { "type": "Point", "coordinates": [ 37.5425, 55.6376 ] } },
{ "type": "Feature", "properties": { "id": 135, "name": "Пункт проката велосипедов № 317", "capacity": 12, "slots": 12, "lon": 37.587700, "lat": 55.712000, "district": "Гагаринский район", "address": "Ленинский проспект, дом 33", "address_note": null }, "geometry": { "type": "Point", "coordinates": [ 37.5877, 55.712 ] } },
{ "type": "Feature", "properties": { "id": 136, "name": "Пункт проката велосипедов № 40", "capacity": 12, "slots": 12, "lon": 37.638400, "lat": 55.752700, "district": "Таганский район", "address": "улица Солянка, дом 8", "address_note": null }, "geometry": { "type": "Point", "coordinates": [ 37.6384, 55.7527 ] } },
{ "type": "Feature", "properties": { "id": 137, "name": "Пункт проката велосипедов № 382", "capacity": 12, "slots": 12, "lon": 37.526600, "lat": 55.641900, "district": "район Коньково", "address": "Профсоюзная улица, дом 91", "address_note": "Выход станции метро «Беляево»" }, "geometry": { "type": "Point", "coordinates": [ 37.5266, 55.6419 ] } },
{ "type": "Feature", "properties": { "id": 138, "name": "Пункт проката велосипедов № 244", "capacity": 12, "slots": 12, "lon": 37.576700, "lat": 55.740200, "district": "район Хамовники", "address": "улица Плющиха, дом 39", "address_note": null }, "geometry": { "type": "Point", "coordinates": [ 37.5767, 55.7402 ] } },
{ "type": "Feature", "properties": { "id": 139, "name": "Пункт проката велосипедов № 315", "capacity": 12, "slots": 12, "lon": 37.605400, "lat": 55.724000, "district": "Гагаринский район", "address": "Ленинский проспект, дом 9", "address_note": null }, "geometry": { "type": "Point", "coordinates": [ 37.6054, 55.724 ] } },
{ "type": "Feature", "properties": { "id": 140, "name": "Пункт проката велосипедов № 58", "capacity": 12, "slots": 12, "lon": 37.654900, "lat": 55.750600, "district": "Басманный район", "address": "Серебряническая набережная, д.29", "address_note": null }, "geometry": { "type": "Point", "coordinates": [ 37.6549, 55.7506 ] } },
{ "type": "Feature", "properties": { "id": 141, "name": "Пункт проката велосипедов № 12", "capacity": 12, "slots": 12, "lon": 37.622500, "lat": 55.767100, "district": "Тверской район", "address": "Цветной бульвар, дом 31", "address_note": "Трубная площадь, у выхода из метро" }, "geometry": { "type": "Point", "coordinates": [ 37.6225, 55.7671 ] } },
{ "type": "Feature", "properties": { "id": 142, "name": "Пункт проката велосипедов № 405", "capacity": 12, "slots": 12, "lon": 37.592347, "lat": 55.781335, "district": "Тверской район", "address": "улица Новолесная, дом 1\/49", "address_note": null }, "geometry": { "type": "Point", "coordinates": [ 37.592347, 55.781335 ] } },
{ "type": "Feature", "properties": { "id": 143, "name": "Пункт проката велосипедов № 379", "capacity": 12, "slots": 12, "lon": 37.541000, "lat": 55.642300, "district": "район Коньково", "address": "улица Введенского, дом 13А", "address_note": null }, "geometry": { "type": "Point", "coordinates": [ 37.541, 55.6423 ] } },
{ "type": "Feature", "properties": { "id": 144, "name": "Пункт проката велосипедов № 130", "capacity": 12, "slots": 12, "lon": 37.649155, "lat": 55.768482, "district": "Басманный район", "address": "Садовая-Черногрязская, дом 2", "address_note": "метро «Красные ворота»" }, "geometry": { "type": "Point", "coordinates": [ 37.649155, 55.768482 ] } },
{ "type": "Feature", "properties": { "id": 145, "name": "Пункт проката велосипедов № 312", "capacity": 12, "slots": 12, "lon": 37.556100, "lat": 55.694900, "district": "Гагаринский район", "address": "Ленинский проспект, дом 60\/2", "address_note": null }, "geometry": { "type": "Point", "coordinates": [ 37.5561, 55.6949 ] } },
{ "type": "Feature", "properties": { "id": 146, "name": "Пункт проката велосипедов № 77", "capacity": 10, "slots": 10, "lon": 37.628200, "lat": 55.737800, "district": "район Замоскворечье", "address": "Пятницкая улица, дом 41", "address_note": null }, "geometry": { "type": "Point", "coordinates": [ 37.6282, 55.7378 ] } },
{ "type": "Feature", "properties": { "id": 147, "name": "Пункт проката велосипедов № 38", "capacity": 12, "slots": 12, "lon": 37.636100, "lat": 55.757700, "district": "Басманный район", "address": "улица Маросейка, дом 11", "address_note": null }, "geometry": { "type": "Point", "coordinates": [ 37.6361, 55.7577 ] } },
{ "type": "Feature", "properties": { "id": 148, "name": "Пункт проката велосипедов № 355", "capacity": 12, "slots": 12, "lon": 37.514200, "lat": 55.705200, "district": "район Раменки", "address": "Ломоносовский проспект, дом 29, корпус 3", "address_note": null }, "geometry": { "type": "Point", "coordinates": [ 37.5142, 55.7052 ] } },
{ "type": "Feature", "properties": { "id": 149, "name": "Пункт проката велосипедов № 352", "capacity": 24, "slots": 24, "lon": 37.528400, "lat": 55.703100, "district": "район Раменки", "address": "улица Академика Хохлова, дом 1Н, корпус Г", "address_note": null }, "geometry": { "type": "Point", "coordinates": [ 37.5284, 55.7031 ] } },
{ "type": "Feature", "properties": { "id": 150, "name": "Пункт проката велосипедов № 441", "capacity": 12, "slots": 12, "lon": 37.631720, "lat": 55.781495, "district": "Мещанский район", "address": "Проспект Мира, дом 41, строение 2", "address_note": null }, "geometry": { "type": "Point", "coordinates": [ 37.63172, 55.781495 ] } },
{ "type": "Feature", "properties": { "id": 151, "name": "Пункт проката велосипедов № 369", "capacity": 12, "slots": 12, "lon": 37.519698, "lat": 55.671388, "district": "район Проспект Вернадского", "address": "улица Удальцова, дом 2", "address_note": null }, "geometry": { "type": "Point", "coordinates": [ 37.519698, 55.671388 ] } },
{ "type": "Feature", "properties": { "id": 152, "name": "Пункт проката велосипедов № 363", "capacity": 12, "slots": 12, "lon": 37.582721, "lat": 55.671656, "district": "Академический район", "address": "Нахимовский проспект, дом 24", "address_note": null }, "geometry": { "type": "Point", "coordinates": [ 37.582721, 55.671656 ] } },
{ "type": "Feature", "properties": { "id": 153, "name": "Пункт проката велосипедов № 237", "capacity": 12, "slots": 12, "lon": 37.565552, "lat": 55.769445, "district": "Пресненский район", "address": "улица Пресненский вал, дом 24", "address_note": null }, "geometry": { "type": "Point", "coordinates": [ 37.565552, 55.769445 ] } },
{ "type": "Feature", "properties": { "id": 154, "name": "Пункт проката велосипедов № 365", "capacity": 12, "slots": 12, "lon": 37.532632, "lat": 55.678715, "district": "район Черёмушки", "address": "улица Гарибальди, дом 1А", "address_note": null }, "geometry": { "type": "Point", "coordinates": [ 37.532632, 55.678715 ] } },
{ "type": "Feature", "properties": { "id": 155, "name": "Пункт проката велосипедов № 364", "capacity": 12, "slots": 12, "lon": 37.519887, "lat": 55.683724, "district": "Ломоносовский район", "address": "улица Марии Ульяновой, дом 16", "address_note": null }, "geometry": { "type": "Point", "coordinates": [ 37.519887, 55.683724 ] } },
{ "type": "Feature", "properties": { "id": 156, "name": "Пункт проката велосипедов № 300", "capacity": 12, "slots": 12, "lon": 37.507555, "lat": 55.703026, "district": "район Проспект Вернадского", "address": "Мичуринский проспект, дом 12, корпус 1", "address_note": null }, "geometry": { "type": "Point", "coordinates": [ 37.507555, 55.703026 ] } },
{ "type": "Feature", "properties": { "id": 157, "name": "Пункт проката велосипедов № 370", "capacity": 12, "slots": 12, "lon": 37.537340, "lat": 55.664620, "district": "Обручевский район", "address": "улица Воронцовские пруды, дом 3", "address_note": null }, "geometry": { "type": "Point", "coordinates": [ 37.53734, 55.66462 ] } },
{ "type": "Feature", "properties": { "id": 158, "name": "Пункт проката велосипедов № 316", "capacity": 12, "slots": 12, "lon": 37.600371, "lat": 55.721120, "district": "Гагаринский район", "address": "Ленинский проспект, дом 15A", "address_note": null }, "geometry": { "type": "Point", "coordinates": [ 37.600371, 55.72112 ] } },
{ "type": "Feature", "properties": { "id": 159, "name": "Пункт проката велосипедов № 380", "capacity": 12, "slots": 12, "lon": 37.500151, "lat": 55.653506, "district": "Обручевский район", "address": "улица Миклухо-Маклая, дом 6", "address_note": null }, "geometry": { "type": "Point", "coordinates": [ 37.500151, 55.653506 ] } },
{ "type": "Feature", "properties": { "id": 160, "name": "Пункт проката велосипедов № 340", "capacity": 12, "slots": 12, "lon": 37.608648, "lat": 55.718027, "district": "Донской район", "address": "улица Шаболовка, дом 32", "address_note": null }, "geometry": { "type": "Point", "coordinates": [ 37.608648, 55.718027 ] } },
{ "type": "Feature", "properties": { "id": 161, "name": "Пункт проката велосипедов № 122", "capacity": 12, "slots": 12, "lon": 37.621210, "lat": 55.773140, "district": "Тверской район", "address": "Цветной бульвар, дом 34, строение 1", "address_note": null }, "geometry": { "type": "Point", "coordinates": [ 37.62121, 55.77314 ] } },
{ "type": "Feature", "properties": { "id": 162, "name": "Пункт проката велосипедов № 442", "capacity": 12, "slots": 12, "lon": 37.635080, "lat": 55.786890, "district": "Мещанский район", "address": "Проспект Мира, дом 69, строение 1", "address_note": null }, "geometry": { "type": "Point", "coordinates": [ 37.63508, 55.78689 ] } },
{ "type": "Feature", "properties": { "id": 163, "name": "Пункт проката велосипедов № 413", "capacity": 12, "slots": 12, "lon": 37.604550, "lat": 55.789350, "district": "район Марьина Роща", "address": "улица Новосущевская, дом 22, строение 8", "address_note": null }, "geometry": { "type": "Point", "coordinates": [ 37.60455, 55.78935 ] } },
{ "type": "Feature", "properties": { "id": 164, "name": "Пункт проката велосипедов № 331", "capacity": 12, "slots": 12, "lon": 37.557307, "lat": 55.673362, "district": "район Черёмушки", "address": "улица Профсоюзная, дом 46, корпус 1", "address_note": null }, "geometry": { "type": "Point", "coordinates": [ 37.557307, 55.673362 ] } },
{ "type": "Feature", "properties": { "id": 165, "name": "Пункт проката велосипедов № 303", "capacity": 12, "slots": 12, "lon": 37.504580, "lat": 55.676540, "district": "район Проспект Вернадского", "address": "Проспект Вернадского, дом 14", "address_note": null }, "geometry": { "type": "Point", "coordinates": [ 37.50458, 55.67654 ] } },
{ "type": "Feature", "properties": { "id": 166, "name": "Пункт проката велосипедов № 330", "capacity": 12, "slots": 12, "lon": 37.570182, "lat": 55.684347, "district": "Обручевский район", "address": "улица Профсоюзная, дом 7\/12", "address_note": null }, "geometry": { "type": "Point", "coordinates": [ 37.570182, 55.684347 ] } },
{ "type": "Feature", "properties": { "id": 167, "name": "Пункт проката велосипедов № 302", "capacity": 12, "slots": 12, "lon": 37.530600, "lat": 55.689770, "district": "район Проспект Вернадского", "address": "Проспект Вернадского, дом 11\/19", "address_note": null }, "geometry": { "type": "Point", "coordinates": [ 37.5306, 55.68977 ] } },
{ "type": "Feature", "properties": { "id": 168, "name": "Пункт проката велосипедов № 334", "capacity": 12, "slots": 12, "lon": 37.525620, "lat": 55.642010, "district": "район Коньково", "address": "улица Профсоюзная, дом 104", "address_note": null }, "geometry": { "type": "Point", "coordinates": [ 37.52562, 55.64201 ] } },
{ "type": "Feature", "properties": { "id": 169, "name": "Пункт проката велосипедов № 332", "capacity": 24, "slots": 24, "lon": 37.552943, "lat": 55.669040, "district": "район Черёмушки", "address": "улица Профсоюзная, дом 58\/32, корпус 2", "address_note": null }, "geometry": { "type": "Point", "coordinates": [ 37.552943, 55.66904 ] } },
{ "type": "Feature", "properties": { "id": 170, "name": "Пункт проката велосипедов № 112", "capacity": 12, "slots": 12, "lon": 37.587380, "lat": 55.763280, "district": "Пресненский район", "address": "улица Садовая-Кудринская дом 11, строение 1", "address_note": null }, "geometry": { "type": "Point", "coordinates": [ 37.58738, 55.76328 ] } },
{ "type": "Feature", "properties": { "id": 171, "name": "Пункт проката велосипедов № 387", "capacity": 12, "slots": 12, "lon": 37.520416, "lat": 55.633760, "district": "район Коньково", "address": "станция метро \"Коньково\"", "address_note": "Выход станции метро «Коньково»" }, "geometry": { "type": "Point", "coordinates": [ 37.520416, 55.63376 ] } },
{ "type": "Feature", "properties": { "id": 172, "name": "Пункт проката велосипедов № 431", "capacity": 12, "slots": 12, "lon": 37.622490, "lat": 55.786079, "district": "Мещанский район", "address": "Олимпийский проспект, дом 22", "address_note": null }, "geometry": { "type": "Point", "coordinates": [ 37.62249, 55.786079 ] } },
{ "type": "Feature", "properties": { "id": 173, "name": "Пункт проката велосипедов № 228", "capacity": 12, "slots": 12, "lon": 37.545641, "lat": 55.757490, "district": "Пресненский район", "address": "Шмитовский проезд, дом 16, строение 2", "address_note": null }, "geometry": { "type": "Point", "coordinates": [ 37.545641, 55.75749 ] } },
{ "type": "Feature", "properties": { "id": 174, "name": "Пункт проката велосипедов № 314", "capacity": 12, "slots": 12, "lon": 37.529599, "lat": 55.678088, "district": "Гагаринский район", "address": "Ленинский проспект, дом 86", "address_note": null }, "geometry": { "type": "Point", "coordinates": [ 37.529599, 55.678088 ] } },
{ "type": "Feature", "properties": { "id": 175, "name": "Пункт проката велосипедов № 73", "capacity": 12, "slots": 12, "lon": 37.619470, "lat": 55.736230, "district": "район Якиманка", "address": "улица Большая Полянка, дом 33\/41, строение 1", "address_note": null }, "geometry": { "type": "Point", "coordinates": [ 37.61947, 55.73623 ] } },
{ "type": "Feature", "properties": { "id": 176, "name": "Пункт проката велосипедов № 346", "capacity": 12, "slots": 12, "lon": 37.585310, "lat": 55.706740, "district": "Гагаринский район", "address": "станция метро \"Ленинский проспект\" , южный вестибюль", "address_note": "Выход станции метро «Ленинский проспект»" }, "geometry": { "type": "Point", "coordinates": [ 37.58531, 55.70674 ] } },
{ "type": "Feature", "properties": { "id": 177, "name": "Пункт проката велосипедов № 432", "capacity": 12, "slots": 12, "lon": 37.629087, "lat": 55.788602, "district": "Мещанский район", "address": "улица Щепкина, дом 61\/2 строение 22", "address_note": null }, "geometry": { "type": "Point", "coordinates": [ 37.629087, 55.788602 ] } },
{ "type": "Feature", "properties": { "id": 178, "name": "Пункт проката велосипедов № 76", "capacity": 14, "slots": 14, "lon": 37.628651, "lat": 55.741485, "district": "район Замоскворечье", "address": "улица Пятницкая, дом 25, строение 1Д", "address_note": null }, "geometry": { "type": "Point", "coordinates": [ 37.628651, 55.741485 ] } },
{ "type": "Feature", "properties": { "id": 179, "name": "Пункт проката велосипедов № 321", "capacity": 12, "slots": 12, "lon": 37.540620, "lat": 55.683960, "district": "Гагаринский район", "address": "Ленинский проспект, дом 79", "address_note": null }, "geometry": { "type": "Point", "coordinates": [ 37.54062, 55.68396 ] } },
{ "type": "Feature", "properties": { "id": 180, "name": "Пункт проката велосипедов № 229", "capacity": 12, "slots": 12, "lon": 37.552939, "lat": 55.764236, "district": "Пресненский район", "address": "Звенигородское шоссе, дом 7", "address_note": null }, "geometry": { "type": "Point", "coordinates": [ 37.552939, 55.764236 ] } },
{ "type": "Feature", "properties": { "id": 181, "name": "Пункт проката велосипедов № 47", "capacity": 12, "slots": 12, "lon": 37.605453, "lat": 55.769588, "district": "Тверской район", "address": "улица Малая Дмитровка, дом 15", "address_note": null }, "geometry": { "type": "Point", "coordinates": [ 37.605453, 55.769588 ] } },
{ "type": "Feature", "properties": { "id": 182, "name": "Пункт проката велосипедов № 36", "capacity": 12, "slots": 12, "lon": 37.628345, "lat": 55.763252, "district": "Мещанский район", "address": "Варсонофьевский переулок, дом 12", "address_note": null }, "geometry": { "type": "Point", "coordinates": [ 37.628345, 55.763252 ] } },
{ "type": "Feature", "properties": { "id": 183, "name": "Пункт проката велосипедов № 460", "capacity": 12, "slots": 12, "lon": 37.650009, "lat": 55.769321, "district": "Красносельский район", "address": "улица Садовая-Спасская, дом 21\/1", "address_note": null }, "geometry": { "type": "Point", "coordinates": [ 37.650009, 55.769321 ] } },
{ "type": "Feature", "properties": { "id": 184, "name": "Пункт проката велосипедов № 430", "capacity": 12, "slots": 12, "lon": 37.622634, "lat": 55.779102, "district": "Мещанский район", "address": "Олимпийский проспект, дом 14", "address_note": null }, "geometry": { "type": "Point", "coordinates": [ 37.622634, 55.779102 ] } },
{ "type": "Feature", "properties": { "id": 185, "name": "Пункт проката велосипедов № 440", "capacity": 12, "slots": 12, "lon": 37.633319, "lat": 55.779945, "district": "Мещанский район", "address": "Проспект мира, дом 40", "address_note": null }, "geometry": { "type": "Point", "coordinates": [ 37.633319, 55.779945 ] } },
{ "type": "Feature", "properties": { "id": 186, "name": "Пункт проката велосипедов № 354", "capacity": 12, "slots": 12, "lon": 37.507289, "lat": 55.710413, "district": "район Раменки", "address": "Ломоносовский проспект, дом 43\/40", "address_note": null }, "geometry": { "type": "Point", "coordinates": [ 37.507289, 55.710413 ] } },
{ "type": "Feature", "properties": { "id": 187, "name": "Пункт проката велосипедов № 124", "capacity": 12, "slots": 12, "lon": 37.621562, "lat": 55.774063, "district": "Мещанский район", "address": "улица Садовая-Сухаревская, дом 5", "address_note": null }, "geometry": { "type": "Point", "coordinates": [ 37.621562, 55.774063 ] } },
{ "type": "Feature", "properties": { "id": 188, "name": "Пункт проката велосипедов № 146", "capacity": 12, "slots": 12, "lon": 37.647831, "lat": 55.737643, "district": "Таганский район", "address": "Гончарная набережная, дом 3, строение 3", "address_note": null }, "geometry": { "type": "Point", "coordinates": [ 37.647831, 55.737643 ] } },
{ "type": "Feature", "properties": { "id": 189, "name": "Пункт проката велосипедов № 361", "capacity": 12, "slots": 12, "lon": 37.552045, "lat": 55.684712, "district": "Гагаринский район", "address": "Ломоносовкий проспект, дом 2\/62, строение 8", "address_note": null }, "geometry": { "type": "Point", "coordinates": [ 37.552045, 55.684712 ] } },
{ "type": "Feature", "properties": { "id": 190, "name": "Пункт проката велосипедов № 462", "capacity": 12, "slots": 12, "lon": 37.654590, "lat": 55.772518, "district": "Красносельский район", "address": "Рязанский проезд, Комсомольская площадь, дом 2", "address_note": null }, "geometry": { "type": "Point", "coordinates": [ 37.65459, 55.772518 ] } },
{ "type": "Feature", "properties": { "id": 191, "name": "Пункт проката велосипедов № 374", "capacity": 12, "slots": 12, "lon": 37.552978, "lat": 55.651252, "district": "Обручевский район", "address": "улица Обручева, дом 33 А", "address_note": null }, "geometry": { "type": "Point", "coordinates": [ 37.552978, 55.651252 ] } },
{ "type": "Feature", "properties": { "id": 192, "name": "Пункт проката велосипедов № 420", "capacity": 12, "slots": 12, "lon": 37.616504, "lat": 55.785259, "district": "Мещанский район", "address": "улица Советской Армии, дом 2, строение 1", "address_note": null }, "geometry": { "type": "Point", "coordinates": [ 37.616504, 55.785259 ] } },
{ "type": "Feature", "properties": { "id": 193, "name": "Пункт проката велосипедов № 372", "capacity": 12, "slots": 12, "lon": 37.570446, "lat": 55.656726, "district": "район Черёмушки", "address": "улица Каховка, дом 29 А", "address_note": null }, "geometry": { "type": "Point", "coordinates": [ 37.570446, 55.656726 ] } },
{ "type": "Feature", "properties": { "id": 194, "name": "Пункт проката велосипедов № 367", "capacity": 12, "slots": 12, "lon": 37.576526, "lat": 55.661945, "district": "район Черёмушки", "address": "Севастопольский проспект, дом 28, корпус 4", "address_note": null }, "geometry": { "type": "Point", "coordinates": [ 37.576526, 55.661945 ] } },
{ "type": "Feature", "properties": { "id": 195, "name": "Пункт проката велосипедов № 333", "capacity": 12, "slots": 12, "lon": 37.539688, "lat": 55.656261, "district": "район Черёмушки", "address": "улица Профсоюзная, дом 61 А", "address_note": null }, "geometry": { "type": "Point", "coordinates": [ 37.539688, 55.656261 ] } },
{ "type": "Feature", "properties": { "id": 196, "name": "Пункт проката велосипедов № 375", "capacity": 12, "slots": 12, "lon": 37.564201, "lat": 55.650211, "district": "район Черёмушки", "address": "улица Обручева, дом 65\/54", "address_note": null }, "geometry": { "type": "Point", "coordinates": [ 37.564201, 55.650211 ] } },
{ "type": "Feature", "properties": { "id": 197, "name": "Пункт проката велосипедов № 108", "capacity": 12, "slots": 12, "lon": 37.583633, "lat": 55.756668, "district": "Пресненский район", "address": "Новинский бульвар, дом 25-27 строение 7", "address_note": null }, "geometry": { "type": "Point", "coordinates": [ 37.583633, 55.756668 ] } },
{ "type": "Feature", "properties": { "id": 198, "name": "Пункт проката велосипедов № 236", "capacity": 12, "slots": 12, "lon": 37.572071, "lat": 55.765613, "district": "Пресненский район", "address": "улица Малая Грузинская, дом 19\/2", "address_note": null }, "geometry": { "type": "Point", "coordinates": [ 37.572071, 55.765613 ] } },
{ "type": "Feature", "properties": { "id": 199, "name": "Пункт проката велосипедов № 411", "capacity": 12, "slots": 12, "lon": 37.613739, "lat": 55.781410, "district": "Тверской район", "address": "улица Селезневская, дом 29, строение 1", "address_note": null }, "geometry": { "type": "Point", "coordinates": [ 37.613739, 55.78141 ] } },
{ "type": "Feature", "properties": { "id": 200, "name": "Пункт проката велосипедов № 386", "capacity": 12, "slots": 12, "lon": 37.519916, "lat": 55.634468, "district": "район Коньково", "address": "улица Островитянова, дом 29\/120", "address_note": null }, "geometry": { "type": "Point", "coordinates": [ 37.519916, 55.634468 ] } },
{ "type": "Feature", "properties": { "id": 201, "name": "Пункт проката велосипедов № 414", "capacity": 12, "slots": 12, "lon": 37.609931, "lat": 55.789173, "district": "район Марьина Роща", "address": "улица Образцова, дм 19 А", "address_note": null }, "geometry": { "type": "Point", "coordinates": [ 37.609931, 55.789173 ] } },
{ "type": "Feature", "properties": { "id": 202, "name": "Пункт проката велосипедов № 421", "capacity": 12, "slots": 12, "lon": 37.616722, "lat": 55.787712, "district": "Мещанский район", "address": "улица Советской Армии, дом 9", "address_note": null }, "geometry": { "type": "Point", "coordinates": [ 37.616722, 55.787712 ] } },
{ "type": "Feature", "properties": { "id": 203, "name": "Пункт проката велосипедов № 422", "capacity": 12, "slots": 12, "lon": 37.616046, "lat": 55.792575, "district": "Мещанский район", "address": "улица Советской Армии, дом 17\/52", "address_note": null }, "geometry": { "type": "Point", "coordinates": [ 37.616046, 55.792575 ] } },
{ "type": "Feature", "properties": { "id": 204, "name": "Пункт проката велосипедов № 371", "capacity": 12, "slots": 12, "lon": 37.559341, "lat": 55.660896, "district": "район Черёмушки", "address": "улица Новочеремушкинская, дом 71\/32", "address_note": null }, "geometry": { "type": "Point", "coordinates": [ 37.559341, 55.660896 ] } },
{ "type": "Feature", "properties": { "id": 205, "name": "Пункт проката велосипедов № 78", "capacity": 12, "slots": 12, "lon": 37.627651, "lat": 55.735363, "district": "район Замоскворечье", "address": "улица Пятницкая, дом 48, строение 1", "address_note": null }, "geometry": { "type": "Point", "coordinates": [ 37.627651, 55.735363 ] } },
{ "type": "Feature", "properties": { "id": 206, "name": "Пункт проката велосипедов № 156", "capacity": 20, "slots": 20, "lon": 37.606376, "lat": 55.731918, "district": "район Якиманка", "address": "улица Крымский Вал, дом 8, корпус 2", "address_note": null }, "geometry": { "type": "Point", "coordinates": [ 37.606376, 55.731918 ] } },
{ "type": "Feature", "properties": { "id": 207, "name": "Пункт проката велосипедов № 461", "capacity": 12, "slots": 12, "lon": 37.646671, "lat": 55.771965, "district": "Красносельский район", "address": "Орликов переулок, дом 3, строение 7", "address_note": null }, "geometry": { "type": "Point", "coordinates": [ 37.646671, 55.771965 ] } },
{ "type": "Feature", "properties": { "id": 208, "name": "Пункт проката велосипедов № 415", "capacity": 12, "slots": 12, "lon": 37.590904, "lat": 55.791374, "district": "Тверской район", "address": "улица Сущевский Вал, дом 2", "address_note": null }, "geometry": { "type": "Point", "coordinates": [ 37.590904, 55.791374 ] } },
{ "type": "Feature", "properties": { "id": 209, "name": "Пункт проката велосипедов № 347", "capacity": 12, "slots": 12, "lon": 37.589305, "lat": 55.691394, "district": "Академический район", "address": "улица Шверника, дом 13, корпус 1", "address_note": null }, "geometry": { "type": "Point", "coordinates": [ 37.589305, 55.691394 ] } },
{ "type": "Feature", "properties": { "id": 210, "name": "Пункт проката велосипедов № 384", "capacity": 12, "slots": 12, "lon": 37.530773, "lat": 55.634258, "district": "район Коньково", "address": "улица Введенского, дом 32", "address_note": null }, "geometry": { "type": "Point", "coordinates": [ 37.530773, 55.634258 ] } },
{ "type": "Feature", "properties": { "id": 211, "name": "Пункт проката велосипедов № 353", "capacity": 12, "slots": 12, "lon": 37.608993, "lat": 55.671798, "district": "Нагорный район", "address": "улица Криворожская, дом 33 Г", "address_note": null }, "geometry": { "type": "Point", "coordinates": [ 37.608993, 55.671798 ] } },
{ "type": "Feature", "properties": { "id": 212, "name": "Пункт проката велосипедов № 470", "capacity": 12, "slots": 12, "lon": 37.623600, "lat": 55.821685, "district": "Останкинский район", "address": "улица Академика Королева, дом 8 А", "address_note": null }, "geometry": { "type": "Point", "coordinates": [ 37.6236, 55.821685 ] } },
{ "type": "Feature", "properties": { "id": 213, "name": "Пункт проката велосипедов № 444", "capacity": 12, "slots": 12, "lon": 37.638457, "lat": 55.819404, "district": "Останкинский район", "address": "Проспект Мира, дом 111 А", "address_note": null }, "geometry": { "type": "Point", "coordinates": [ 37.638457, 55.819404 ] } },
{ "type": "Feature", "properties": { "id": 214, "name": "Пункт проката велосипедов № 417", "capacity": 12, "slots": 12, "lon": 37.617156, "lat": 55.793457, "district": "район Марьина Роща", "address": "улица Шереметьевская, дом 2", "address_note": null }, "geometry": { "type": "Point", "coordinates": [ 37.617156, 55.793457 ] } },
{ "type": "Feature", "properties": { "id": 215, "name": "Пункт проката велосипедов № 385", "capacity": 12, "slots": 12, "lon": 37.495132, "lat": 55.643985, "district": "район Коньково", "address": "улица Островитянова, дом 7", "address_note": null }, "geometry": { "type": "Point", "coordinates": [ 37.495132, 55.643985 ] } },
{ "type": "Feature", "properties": { "id": 216, "name": "Пункт проката велосипедов № 471", "capacity": 12, "slots": 12, "lon": 37.610488, "lat": 55.821743, "district": "Останкинский район", "address": "улица Академика Королева, дом 12 Б", "address_note": null }, "geometry": { "type": "Point", "coordinates": [ 37.610488, 55.821743 ] } },
{ "type": "Feature", "properties": { "id": 217, "name": "Пункт проката велосипедов № 472", "capacity": 12, "slots": 12, "lon": 37.630187, "lat": 55.815486, "district": "Останкинский район", "address": "Звездный бульвар, дом 18\/1", "address_note": null }, "geometry": { "type": "Point", "coordinates": [ 37.630187, 55.815486 ] } },
{ "type": "Feature", "properties": { "id": 218, "name": "Пункт проката велосипедов № 318", "capacity": 12, "slots": 12, "lon": 37.572990, "lat": 55.703250, "district": "Гагаринский район", "address": "Ленинский проспект, дом 45", "address_note": null }, "geometry": { "type": "Point", "coordinates": [ 37.57299, 55.70325 ] } },
{ "type": "Feature", "properties": { "id": 219, "name": "Пункт проката велосипедов № 446", "capacity": 12, "slots": 12, "lon": 37.654231, "lat": 55.834408, "district": "район Ростокино", "address": "Проспект Мира, дом 163", "address_note": null }, "geometry": { "type": "Point", "coordinates": [ 37.654231, 55.834408 ] } },
{ "type": "Feature", "properties": { "id": 220, "name": "Пункт проката велосипедов № 450", "capacity": 12, "slots": 12, "lon": 37.637439, "lat": 55.833338, "district": "район Ростокино", "address": "улица Сергея Эйзенштейна, дом 8", "address_note": null }, "geometry": { "type": "Point", "coordinates": [ 37.637439, 55.833338 ] } },
{ "type": "Feature", "properties": { "id": 221, "name": "Пункт проката велосипедов № 373", "capacity": 12, "slots": 12, "lon": 37.596253, "lat": 55.652451, "district": "район Зюзино", "address": "улица Азовская, дом 24, корпус 2", "address_note": "Выход станции метро «Каховская»" }, "geometry": { "type": "Point", "coordinates": [ 37.596253, 55.652451 ] } },
{ "type": "Feature", "properties": { "id": 222, "name": "Пункт проката велосипедов № 480", "capacity": 12, "slots": 12, "lon": 37.580688, "lat": 55.820725, "district": "Бутырский район", "address": "улица Яблочково, дом 18", "address_note": null }, "geometry": { "type": "Point", "coordinates": [ 37.580688, 55.820725 ] } },
{ "type": "Feature", "properties": { "id": 223, "name": "Пункт проката велосипедов № 481", "capacity": 12, "slots": 12, "lon": 37.580408, "lat": 55.827897, "district": "Бутырский район", "address": "улица Милашенкова, дом 12", "address_note": null }, "geometry": { "type": "Point", "coordinates": [ 37.580408, 55.827897 ] } },
{ "type": "Feature", "properties": { "id": 224, "name": "Пункт проката велосипедов № 482", "capacity": 12, "slots": 12, "lon": 37.594597, "lat": 55.813304, "district": "Бутырский район", "address": "улица Руставели, дом 13\/12, корпус 1", "address_note": null }, "geometry": { "type": "Point", "coordinates": [ 37.594597, 55.813304 ] } },
{ "type": "Feature", "properties": { "id": 225, "name": "Пункт проката велосипедов № 467", "capacity": 12, "slots": 12, "lon": 37.635295, "lat": 55.826453, "district": "Останкинский район", "address": "Проспект Мира,дом 119, строение 288", "address_note": "территория ВДНХ" }, "geometry": { "type": "Point", "coordinates": [ 37.635295, 55.826453 ] } },
{ "type": "Feature", "properties": { "id": 226, "name": "Пункт проката велосипедов № 468", "capacity": 12, "slots": 12, "lon": 37.617568, "lat": 55.830492, "district": "Останкинский район", "address": "Проспект Мира, дом 119, строение 503", "address_note": "территория ВДНХ" }, "geometry": { "type": "Point", "coordinates": [ 37.617568, 55.830492 ] } },
{ "type": "Feature", "properties": { "id": 227, "name": "Пункт проката велосипедов № 114", "capacity": 12, "slots": 12, "lon": 37.590813, "lat": 55.766245, "district": "Пресненский район", "address": "улица Большая Садовая, дом 1", "address_note": null }, "geometry": { "type": "Point", "coordinates": [ 37.590813, 55.766245 ] } },
{ "type": "Feature", "properties": { "id": 228, "name": "Пункт проката велосипедов № 410", "capacity": 12, "slots": 12, "lon": 37.608918, "lat": 55.778385, "district": "Тверской район", "address": "2-й Щемиловский переулок, дом 14\/29", "address_note": null }, "geometry": { "type": "Point", "coordinates": [ 37.608918, 55.778385 ] } },
{ "type": "Feature", "properties": { "id": 229, "name": "Пункт проката велосипедов № 464", "capacity": 21, "slots": 21, "lon": 37.601039, "lat": 55.830195, "district": "район Марфино", "address": "улица Ботаническая, дом 4, строение 3", "address_note": null }, "geometry": { "type": "Point", "coordinates": [ 37.601039, 55.830195 ] } },
{ "type": "Feature", "properties": { "id": 230, "name": "Пункт проката велосипедов № 469", "capacity": 12, "slots": 12, "lon": 37.617668, "lat": 55.837524, "district": "Останкинский район", "address": "Проспект Мира, дом 119, строение 353", "address_note": "территория ВДНХ" }, "geometry": { "type": "Point", "coordinates": [ 37.617668, 55.837524 ] } },
{ "type": "Feature", "properties": { "id": 231, "name": "Пункт проката велосипедов № 341", "capacity": 12, "slots": 12, "lon": 37.594389, "lat": 55.709908, "district": "Донской район", "address": "улица Орджоникидзе, дом 11, строение 1\/2", "address_note": null }, "geometry": { "type": "Point", "coordinates": [ 37.594389, 55.709908 ] } },
{ "type": "Feature", "properties": { "id": 232, "name": "Пункт проката велосипедов № 231", "capacity": 12, "slots": 12, "lon": 37.583000, "lat": 55.777100, "district": "Тверской район", "address": "площадь Тверская Застава, дом 7", "address_note": null }, "geometry": { "type": "Point", "coordinates": [ 37.583, 55.7771 ] } },
{ "type": "Feature", "properties": { "id": 233, "name": "Пункт проката велосипедов № 466", "capacity": 36, "slots": 36, "lon": 37.639128, "lat": 55.825361, "district": "Останкинский район", "address": "Продольный проезд", "address_note": null }, "geometry": { "type": "Point", "coordinates": [ 37.639128, 55.825361 ] } },
{ "type": "Feature", "properties": { "id": 234, "name": "Пункт проката велосипедов № 81", "capacity": 12, "slots": 12, "lon": 37.633294, "lat": 55.739877, "district": "район Замоскворечье", "address": "Озерковский переулок, дом 13", "address_note": null }, "geometry": { "type": "Point", "coordinates": [ 37.633294, 55.739877 ] } },
{ "type": "Feature", "properties": { "id": 235, "name": "Пункт проката велосипедов № 368", "capacity": 12, "slots": 12, "lon": 37.608093, "lat": 55.659191, "district": "район Зюзино", "address": "Симферопольский бульвар, дом 4", "address_note": null }, "geometry": { "type": "Point", "coordinates": [ 37.608093, 55.659191 ] } },
{ "type": "Feature", "properties": { "id": 236, "name": "Пункт проката велосипедов № 71", "capacity": 12, "slots": 12, "lon": 37.616029, "lat": 55.738950, "district": "район Якиманка", "address": "улица Большая Якиманка, дом 18", "address_note": null }, "geometry": { "type": "Point", "coordinates": [ 37.616029, 55.73895 ] } },
{ "type": "Feature", "properties": { "id": 237, "name": "Пункт проката велосипедов № 80", "capacity": 12, "slots": 12, "lon": 37.626464, "lat": 55.745814, "district": "район Замоскворечье", "address": "улица Пятницкая, дом 2\/38", "address_note": null }, "geometry": { "type": "Point", "coordinates": [ 37.626464, 55.745814 ] } },
{ "type": "Feature", "properties": { "id": 238, "name": "Пункт проката велосипедов № 443", "capacity": 12, "slots": 12, "lon": 37.636617, "lat": 55.808565, "district": "Останкинский район", "address": "Проспект Мира, дом 97", "address_note": null }, "geometry": { "type": "Point", "coordinates": [ 37.636617, 55.808565 ] } },
{ "type": "Feature", "properties": { "id": 239, "name": "Пункт проката велосипедов № 451", "capacity": 12, "slots": 12, "lon": 37.636551, "lat": 55.837144, "district": "Останкинский район", "address": "улица Сельскохозяйственная, дом 17, корпус 1", "address_note": null }, "geometry": { "type": "Point", "coordinates": [ 37.636551, 55.837144 ] } },
{ "type": "Feature", "properties": { "id": 240, "name": "Пункт проката велосипедов № 55", "capacity": 12, "slots": 12, "lon": 37.589738, "lat": 55.740126, "district": "район Хамовники", "address": "улица Пречистенка, дом 34", "address_note": null }, "geometry": { "type": "Point", "coordinates": [ 37.589738, 55.740126 ] } },
{ "type": "Feature", "properties": { "id": 241, "name": "Пункт проката велосипедов № 389", "capacity": 12, "slots": 12, "lon": 37.495249, "lat": 55.655932, "district": "район Тропарёво-Никулино", "address": "Улица 26-ти Бакинских Комиссаров, дом 2 Б", "address_note": null }, "geometry": { "type": "Point", "coordinates": [ 37.495249, 55.655932 ] } },
{ "type": "Feature", "properties": { "id": 242, "name": "Пункт проката велосипедов № 391", "capacity": 12, "slots": 12, "lon": 37.606796, "lat": 55.663717, "district": "район Зюзино", "address": "Нахимовский проспект, дом 11, корпус 1", "address_note": null }, "geometry": { "type": "Point", "coordinates": [ 37.606796, 55.663717 ] } },
{ "type": "Feature", "properties": { "id": 243, "name": "Пункт проката велосипедов № 393", "capacity": 12, "slots": 12, "lon": 37.571113, "lat": 55.674873, "district": "район Черёмушки", "address": "Нахимовский проспект, дом 45, строение 1", "address_note": null }, "geometry": { "type": "Point", "coordinates": [ 37.571113, 55.674873 ] } },
{ "type": "Feature", "properties": { "id": 244, "name": "Пункт проката велосипедов № 388", "capacity": 12, "slots": 12, "lon": 37.619266, "lat": 55.645199, "district": "район Москворечье-Сабурово", "address": "Варшавское шоссе, дом 100", "address_note": null }, "geometry": { "type": "Point", "coordinates": [ 37.619266, 55.645199 ] } },
{ "type": "Feature", "properties": { "id": 245, "name": "Пункт проката велосипедов № 60", "capacity": 12, "slots": 12, "lon": 37.608656, "lat": 55.757438, "district": "Тверской район", "address": "Газетный переулок, дом 6", "address_note": null }, "geometry": { "type": "Point", "coordinates": [ 37.608656, 55.757438 ] } },
{ "type": "Feature", "properties": { "id": 246, "name": "Пункт проката велосипедов № 396", "capacity": 12, "slots": 12, "lon": 37.595485, "lat": 55.679562, "district": "Академический район", "address": "улица Дмитрия Ульянова, дом 46", "address_note": null }, "geometry": { "type": "Point", "coordinates": [ 37.595485, 55.679562 ] } },
{ "type": "Feature", "properties": { "id": 247, "name": "Пункт проката велосипедов № 151", "capacity": 12, "slots": 12, "lon": 37.623162, "lat": 55.729074, "district": "район Замоскворечье", "address": "улица Люсиновская, дом 2, строение 5", "address_note": "Выход станции метро «Добрынинская»" }, "geometry": { "type": "Point", "coordinates": [ 37.623162, 55.729074 ] } },
{ "type": "Feature", "properties": { "id": 248, "name": "Пункт проката велосипедов № 390", "capacity": 12, "slots": 12, "lon": 37.518875, "lat": 55.652432, "district": "Обручевский район", "address": "улица Академика Волгина, дом 6", "address_note": null }, "geometry": { "type": "Point", "coordinates": [ 37.518875, 55.652432 ] } },
{ "type": "Feature", "properties": { "id": 249, "name": "Пункт проката велосипедов № 395", "capacity": 12, "slots": 12, "lon": 37.582777, "lat": 55.684571, "district": "Академический район", "address": "улица Дмитрия Ульянова, дом 32 А", "address_note": null }, "geometry": { "type": "Point", "coordinates": [ 37.582777, 55.684571 ] } },
{ "type": "Feature", "properties": { "id": 250, "name": "Пункт проката велосипедов № 84", "capacity": 12, "slots": 12, "lon": 37.635113, "lat": 55.737552, "district": "район Замоскворечье", "address": "улица Большая Татарская, дом 35, строение 3", "address_note": null }, "geometry": { "type": "Point", "coordinates": [ 37.635113, 55.737552 ] } },
{ "type": "Feature", "properties": { "id": 251, "name": "Пункт проката велосипедов № 397", "capacity": 12, "slots": 12, "lon": 37.574462, "lat": 55.688201, "district": "Академический район", "address": "проспект 60-летия Октября, дом 31\/18, корпус 1, строение 2", "address_note": null }, "geometry": { "type": "Point", "coordinates": [ 37.574462, 55.688201 ] } },
{ "type": "Feature", "properties": { "id": 252, "name": "Пункт проката велосипедов № 376", "capacity": 12, "slots": 12, "lon": 37.582171, "lat": 55.645488, "district": "район Зюзино", "address": "Балаклавский проспект, дом 34 корпус 1", "address_note": null }, "geometry": { "type": "Point", "coordinates": [ 37.582171, 55.645488 ] } },
{ "type": "Feature", "properties": { "id": 253, "name": "Пункт проката велосипедов № 326", "capacity": 12, "slots": 12, "lon": 37.580711, "lat": 55.653507, "district": "район Зюзино", "address": "улица Каховка, дом 10\/12, корпус 1", "address_note": null }, "geometry": { "type": "Point", "coordinates": [ 37.580711, 55.653507 ] } },
{ "type": "Feature", "properties": { "id": 254, "name": "Пункт проката велосипедов № 339", "capacity": 12, "slots": 12, "lon": 37.514881, "lat": 55.658798, "district": "Обручевский район", "address": "улица Обручева, дом 16, корпус 1", "address_note": null }, "geometry": { "type": "Point", "coordinates": [ 37.514881, 55.658798 ] } },
{ "type": "Feature", "properties": { "id": 255, "name": "Пункт проката велосипедов № 423", "capacity": 12, "slots": 12, "lon": 37.615390, "lat": 55.802913, "district": "район Марьина Роща", "address": "улица Шереметьевская, дом 27", "address_note": null }, "geometry": { "type": "Point", "coordinates": [ 37.61539, 55.802913 ] } },
{ "type": "Feature", "properties": { "id": 256, "name": "Пункт проката велосипедов № 463", "capacity": 12, "slots": 12, "lon": 37.650337, "lat": 55.776218, "district": "Красносельский район", "address": "улица Каланчевская, дом 10, строение 3", "address_note": null }, "geometry": { "type": "Point", "coordinates": [ 37.650337, 55.776218 ] } },
{ "type": "Feature", "properties": { "id": 257, "name": "Пункт проката велосипедов № 327", "capacity": 12, "slots": 12, "lon": 37.589172, "lat": 55.651447, "district": "Обручевский район", "address": "улица Каховка, дом 9, корпус 1", "address_note": null }, "geometry": { "type": "Point", "coordinates": [ 37.589172, 55.651447 ] } },
{ "type": "Feature", "properties": { "id": 258, "name": "Пункт проката велосипедов № 381", "capacity": 12, "slots": 12, "lon": 37.512929, "lat": 55.648343, "district": "район Коньково", "address": "улица Академика Волгина, дом 21", "address_note": null }, "geometry": { "type": "Point", "coordinates": [ 37.512929, 55.648343 ] } },
{ "type": "Feature", "properties": { "id": 259, "name": "Пункт проката велосипедов № 325", "capacity": 12, "slots": 12, "lon": 37.594161, "lat": 55.659076, "district": "район Зюзино", "address": "улица Болотниковская, дом 34, корпус 1", "address_note": null }, "geometry": { "type": "Point", "coordinates": [ 37.594161, 55.659076 ] } },
{ "type": "Feature", "properties": { "id": 260, "name": "Пункт проката велосипедов № 338", "capacity": 12, "slots": 12, "lon": 37.526493, "lat": 55.667076, "district": "Обручевский район", "address": "пересечение улицы Новаторов и улицы Воронцовские Пруды", "address_note": "Вход в Воронцовский парк" }, "geometry": { "type": "Point", "coordinates": [ 37.526493, 55.667076 ] } },
{ "type": "Feature", "properties": { "id": 261, "name": "Пункт проката велосипедов № 250", "capacity": 12, "slots": 12, "lon": 37.539165, "lat": 55.747509, "district": "Пресненский район", "address": "Пресненская набережная, дом 6, строение 2", "address_note": "территория Москва-Сити, Башня Империя" }, "geometry": { "type": "Point", "coordinates": [ 37.539165, 55.747509 ] } },
{ "type": "Feature", "properties": { "id": 262, "name": "Пункт проката велосипедов № 251", "capacity": 12, "slots": 12, "lon": 37.540904, "lat": 55.751911, "district": "Пресненский район", "address": "1-й Красногвардейский проезд, дом 13, строение 1", "address_note": "территория Москва-Сити, Башня Империя" }, "geometry": { "type": "Point", "coordinates": [ 37.540904, 55.751911 ] } },
{ "type": "Feature", "properties": { "id": 263, "name": "Пункт проката велосипедов № 328", "capacity": 12, "slots": 12, "lon": 37.604530, "lat": 55.641757, "district": "район Зюзино", "address": "Балаклавский проспект, дом 16", "address_note": null }, "geometry": { "type": "Point", "coordinates": [ 37.60453, 55.641757 ] } },
{ "type": "Feature", "properties": { "id": 264, "name": "Пункт проката велосипедов № 309", "capacity": 12, "slots": 12, "lon": 37.571292, "lat": 55.665069, "district": "район Черёмушки", "address": "улица Болотниковская, парк 70-летия Победы", "address_note": null }, "geometry": { "type": "Point", "coordinates": [ 37.571292, 55.665069 ] } },
{ "type": "Feature", "properties": { "id": 265, "name": "Пункт проката велосипедов № 416", "capacity": 12, "slots": 12, "lon": 37.602809, "lat": 55.792434, "district": "район Марьина Роща", "address": "улица Сущевский Вал, дом 16, строение 1", "address_note": null }, "geometry": { "type": "Point", "coordinates": [ 37.602809, 55.792434 ] } },
{ "type": "Feature", "properties": { "id": 266, "name": "Пункт проката велосипедов № 392", "capacity": 12, "slots": 12, "lon": 37.603679, "lat": 55.675312, "district": "район Котловка", "address": "улица Ремизова, дом 15 корпус 1", "address_note": null }, "geometry": { "type": "Point", "coordinates": [ 37.603679, 55.675312 ] } },
{ "type": "Feature", "properties": { "id": 267, "name": "Пункт проката велосипедов № 85", "capacity": 12, "slots": 12, "lon": 37.645381, "lat": 55.748229, "district": "Таганский район", "address": "Котельническая набережная, дом 1\/15квк", "address_note": null }, "geometry": { "type": "Point", "coordinates": [ 37.645381, 55.748229 ] } },
{ "type": "Feature", "properties": { "id": 268, "name": "Пункт проката велосипедов № 348", "capacity": 12, "slots": 12, "lon": 37.517116, "lat": 55.716167, "district": "район Раменки", "address": "улица Мосфильмовская, дом 17-25", "address_note": null }, "geometry": { "type": "Point", "coordinates": [ 37.517116, 55.716167 ] } },
{ "type": "Feature", "properties": { "id": 269, "name": "Пункт проката велосипедов № 337", "capacity": 12, "slots": 12, "lon": 37.534259, "lat": 55.668342, "district": "Обручевский район", "address": "улица Академика Пилюгина, дом 18", "address_note": null }, "geometry": { "type": "Point", "coordinates": [ 37.534259, 55.668342 ] } },
{ "type": "Feature", "properties": { "id": 270, "name": "Пункт проката велосипедов № 307", "capacity": 12, "slots": 12, "lon": 37.577945, "lat": 55.701175, "district": "Гагаринский район", "address": "улица Вавилова, дом 24", "address_note": null }, "geometry": { "type": "Point", "coordinates": [ 37.577945, 55.701175 ] } },
{ "type": "Feature", "properties": { "id": 271, "name": "Пункт проката велосипедов № 125", "capacity": 12, "slots": 12, "lon": 37.633300, "lat": 55.772930, "district": "Мещанский район", "address": "Проспект Мира, дом 2", "address_note": null }, "geometry": { "type": "Point", "coordinates": [ 37.6333, 55.77293 ] } },
{ "type": "Feature", "properties": { "id": 272, "name": "Пункт проката велосипедов № 129", "capacity": 12, "slots": 12, "lon": 37.645046, "lat": 55.770996, "district": "Красносельский район", "address": "Орликов переулок, дом 1\/11", "address_note": "со стороны проспекта Академика Сахарова" }, "geometry": { "type": "Point", "coordinates": [ 37.645046, 55.770996 ] } },
{ "type": "Feature", "properties": { "id": 273, "name": "Пункт проката велосипедов № 103", "capacity": 12, "slots": 12, "lon": 37.584668, "lat": 55.740490, "district": "район Хамовники", "address": "Смоленский бульвар,дом 3-5, строение 1 Б", "address_note": null }, "geometry": { "type": "Point", "coordinates": [ 37.584668, 55.74049 ] } },
{ "type": "Feature", "properties": { "id": 274, "name": "Пункт проката велосипедов № 248", "capacity": 12, "slots": 12, "lon": 37.557608, "lat": 55.746254, "district": "район Дорогомилово", "address": "улица Большая Дорогомиловская, дом7\/2", "address_note": null }, "geometry": { "type": "Point", "coordinates": [ 37.557608, 55.746254 ] } },
{ "type": "Feature", "properties": { "id": 275, "name": "Пункт проката велосипедов № 394", "capacity": 12, "slots": 12, "lon": 37.562854, "lat": 55.677410, "district": "район Черёмушки", "address": "Нахимовский проспект, дом 51\/21", "address_note": "Выход станции метро «Профсоюзная»" }, "geometry": { "type": "Point", "coordinates": [ 37.562854, 55.67741 ] } },
{ "type": "Feature", "properties": { "id": 276, "name": "Пункт проката велосипедов № 335", "capacity": 12, "slots": 12, "lon": 37.539333, "lat": 55.656261, "district": "Обручевский район", "address": "улица Профсоюзная, дом 82, корпус 1", "address_note": null }, "geometry": { "type": "Point", "coordinates": [ 37.539333, 55.656261 ] } },
{ "type": "Feature", "properties": { "id": 277, "name": "Пункт проката велосипедов № 439", "capacity": 12, "slots": 12, "lon": 37.632133, "lat": 55.776031, "district": "Мещанский район", "address": "Проспект Мира, дом 11", "address_note": null }, "geometry": { "type": "Point", "coordinates": [ 37.632133, 55.776031 ] } },
{ "type": "Feature", "properties": { "id": 278, "name": "Пункт проката велосипедов № 322", "capacity": 12, "slots": 12, "lon": 37.520408, "lat": 55.670425, "district": "Обручевский район", "address": "Ленинский проспект, дом 99", "address_note": null }, "geometry": { "type": "Point", "coordinates": [ 37.520408, 55.670425 ] } },
{ "type": "Feature", "properties": { "id": 279, "name": "Пункт проката велосипедов № 336", "capacity": 12, "slots": 12, "lon": 37.532020, "lat": 55.650684, "district": "район Коньково", "address": "улица Профсоюзная, дом 88\/20", "address_note": null }, "geometry": { "type": "Point", "coordinates": [ 37.53202, 55.650684 ] } },
{ "type": "Feature", "properties": { "id": 280, "name": "Пункт проката велосипедов № 465", "capacity": 12, "slots": 12, "lon": 37.617248, "lat": 55.824314, "district": "Останкинский район", "address": "улица 1-я Останкинская, дом 1 А", "address_note": null }, "geometry": { "type": "Point", "coordinates": [ 37.617248, 55.824314 ] } },
{ "type": "Feature", "properties": { "id": 281, "name": "Пункт проката велосипедов № 407", "capacity": 12, "slots": 12, "lon": 37.607856, "lat": 55.780651, "district": "Тверской район", "address": "улица Селезневская, дом 28", "address_note": null }, "geometry": { "type": "Point", "coordinates": [ 37.607856, 55.780651 ] } },
{ "type": "Feature", "properties": { "id": 282, "name": "Пункт проката велосипедов № 398", "capacity": 12, "slots": 12, "lon": 37.618324, "lat": 55.653102, "district": "Нагорный район", "address": "Чонгарский бульвар, дом 1, корпус 1", "address_note": null }, "geometry": { "type": "Point", "coordinates": [ 37.618324, 55.653102 ] } },
{ "type": "Feature", "properties": { "id": 283, "name": "Пункт проката велосипедов № 484", "capacity": 12, "slots": 12, "lon": 37.588375, "lat": 55.812377, "district": "Бутырский район", "address": "улица Руставели, дом 6, корпус 5", "address_note": null }, "geometry": { "type": "Point", "coordinates": [ 37.588375, 55.812377 ] } },
{ "type": "Feature", "properties": { "id": 284, "name": "Пункт проката велосипедов № 445", "capacity": 12, "slots": 12, "lon": 37.647220, "lat": 55.827526, "district": "Останкинский район", "address": "Улица Сергея Эйзенштейна, дом 1", "address_note": null }, "geometry": { "type": "Point", "coordinates": [ 37.64722, 55.827526 ] } },
{ "type": "Feature", "properties": { "id": 285, "name": "Пункт проката велосипедов № 474", "capacity": 12, "slots": 12, "lon": 37.634063, "lat": 55.823440, "district": "Останкинский район", "address": "1-я Останкинская улица, дом 55", "address_note": null }, "geometry": { "type": "Point", "coordinates": [ 37.634063, 55.82344 ] } },
{ "type": "Feature", "properties": { "id": 286, "name": "Пункт проката велосипедов № 399", "capacity": 12, "slots": 12, "lon": 37.605651, "lat": 55.653751, "district": "Нагорный район", "address": "Симферопольский бульвар, дом 15, корпус 5", "address_note": null }, "geometry": { "type": "Point", "coordinates": [ 37.605651, 55.653751 ] } },
{ "type": "Feature", "properties": { "id": 287, "name": "Пункт проката велосипедов № 329", "capacity": 12, "slots": 12, "lon": 37.537874, "lat": 55.675732, "district": "Ломоносовский район", "address": "улица Гарибальди, дом 6, корпус 1", "address_note": null }, "geometry": { "type": "Point", "coordinates": [ 37.537874, 55.675732 ] } },
{ "type": "Feature", "properties": { "id": 288, "name": "Пункт проката велосипедов № 473", "capacity": 12, "slots": 12, "lon": 37.604133, "lat": 55.821704, "district": "Останкинский район", "address": "улица академика Королева, дом 12А", "address_note": null }, "geometry": { "type": "Point", "coordinates": [ 37.604133, 55.821704 ] } },
{ "type": "Feature", "properties": { "id": 289, "name": "Пункт проката велосипедов № 252", "capacity": 8, "slots": 8, "lon": 37.586429, "lat": 55.734264, "district": "район Хамовники", "address": "улица Льва Толстого, дом 21", "address_note": null }, "geometry": { "type": "Point", "coordinates": [ 37.586429, 55.734264 ] } },
{ "type": "Feature", "properties": { "id": 290, "name": "Пункт проката велосипедов № 408", "capacity": 12, "slots": 12, "lon": 37.596430, "lat": 55.784342, "district": "Тверской район", "address": "улица Лесная , дом 63\/43 строение 2", "address_note": null }, "geometry": { "type": "Point", "coordinates": [ 37.59643, 55.784342 ] } },
{ "type": "Feature", "properties": { "id": 291, "name": "Пункт проката велосипедов № 453", "capacity": 12, "slots": 12, "lon": 37.590302, "lat": 55.856122, "district": "район Отрадное", "address": "станция метро «Владыкино»", "address_note": "Выход станции метро «Владыкино»" }, "geometry": { "type": "Point", "coordinates": [ 37.590302, 55.856122 ] } },
{ "type": "Feature", "properties": { "id": 292, "name": "Пункт проката велосипедов № 485", "capacity": 12, "slots": 12, "lon": 37.574114, "lat": 55.819238, "district": "Тимирязевский район", "address": "Дмитровское шоссе, дом 13 А", "address_note": "Выход станции метро «Тимирязевская»" }, "geometry": { "type": "Point", "coordinates": [ 37.574114, 55.819238 ] } },
{ "type": "Feature", "properties": { "id": 293, "name": "Пункт проката велосипедов № 404", "capacity": 12, "slots": 12, "lon": 37.601275, "lat": 55.778786, "district": "Тверской район", "address": "улица Долгоруковская, дом 39\/6", "address_note": null }, "geometry": { "type": "Point", "coordinates": [ 37.601275, 55.778786 ] } },
{ "type": "Feature", "properties": { "id": 294, "name": "Пункт проката велосипедов № 46", "capacity": 12, "slots": 12, "lon": 37.652100, "lat": 55.767000, "district": "Тверской район", "address": "улица Тверская, дом 20, строение 1", "address_note": null }, "geometry": { "type": "Point", "coordinates": [ 37.6521, 55.767 ] } },
{ "type": "Feature", "properties": { "id": 295, "name": "Пункт проката велосипедов № 157", "capacity": 32, "slots": 32, "lon": 37.605051, "lat": 55.731962, "district": "район Якиманка", "address": "улица Крымский вал, дом 9, строение 1", "address_note": null }, "geometry": { "type": "Point", "coordinates": [ 37.605051, 55.731962 ] } },
{ "type": "Feature", "properties": { "id": 296, "name": "Пункт проката велосипедов № 245", "capacity": 18, "slots": 18, "lon": 37.569240, "lat": 55.742321, "district": "район Дорогомилово", "address": "площадь Европы, дом 2", "address_note": null }, "geometry": { "type": "Point", "coordinates": [ 37.56924, 55.742321 ] } },
{ "type": "Feature", "properties": { "id": 297, "name": "Пункт проката велосипедов № 452", "capacity": 12, "slots": 12, "lon": 37.637010, "lat": 55.843133, "district": "район Ростокино", "address": "станция метро «Ботанический сад»", "address_note": "Выход станции метро «Ботанический сад»" }, "geometry": { "type": "Point", "coordinates": [ 37.63701, 55.843133 ] } },
{ "type": "Feature", "properties": { "id": 298, "name": "Пункт проката велосипедов № 33", "capacity": 12, "slots": 12, "lon": 37.617189, "lat": 55.763147, "district": "Тверской район", "address": "Столешников переулок, дом 11", "address_note": null }, "geometry": { "type": "Point", "coordinates": [ 37.617189, 55.763147 ] } },
{ "type": "Feature", "properties": { "id": 299, "name": "Пункт проката велосипедов № 342", "capacity": 12, "slots": 12, "lon": 37.529504, "lat": 55.723348, "district": "район Раменки", "address": "улица Мосфильмовская, дом 1, строение 4", "address_note": null }, "geometry": { "type": "Point", "coordinates": [ 37.529504, 55.723348 ] } },
{ "type": "Feature", "properties": { "id": 300, "name": "Пункт проката велосипедов № 483", "capacity": 32, "slots": 32, "lon": 37.659304, "lat": 55.776629, "district": "Красносельский район", "address": "Комсомольская площадь, дом 5", "address_note": null }, "geometry": { "type": "Point", "coordinates": [ 37.659304, 55.776629 ] } }
]
}
